Business Center,Venue,Venue Category,Venue Id,Venue Latitude,Venue Likes,Venue Longitude,Venue Ratings
Grenoble Europole,Taxi Brouss Restaurant,African ,4b7ee179f964a520720630e3,45.18602987895873,0.0,5.709129889545702,
Grenoble Europole,dans le frigo allongé sur du saucisson halal,African ,52b60cbd498e59b0f634921c,45.20053482055664,0.0,5.711606025695801,
Grenoble Europole,Okapi,African ,4ee25c4a9a521fcbef96da4c,45.19528177574103,0.0,5.7234720323409425,
Grenoble Europole,Casanaïse,African ,4f96fc1ae4b08c0fe38a1e02,45.194441,0.0,5.727997,
Grenoble Europole,O'Brother Restaurant,American ,52075af111d2bd7584e24e92,45.18721389770508,1.0,5.706894874572754,
Grenoble Europole,ChinaTown Restaurant,Asian ,4ed76cd47ee53b380fb71c1f,45.19030109301963,2.0,5.715301728713041,
Grenoble Europole,China Moon,Chinese ,4c70f331df6b8cfaaed0b94d,45.19045521672206,4.0,5.715695560586513,
Grenoble Europole,fast food,Asian ,5364c420498e4f36f11b628a,45.18775364219464,0.0,5.72288990020752,
Grenoble Europole,Asia Lunch,Vietnamese ,5239db4311d203a8f5ec9222,45.19121715412997,3.0,5.71316978804919,
Grenoble Europole,Q TEA,Chinese ,52d665a211d2382e917ad48f,45.19066475753775,1.0,5.717791020870209,
Grenoble Europole,Mei Shan,Asian ,55199c87498e8ea2ad1c7948,45.18984207609489,0.0,5.717696660176284,
Grenoble Europole,Restaurant Seoul,Korean ,5b093ee8628c83002c0c084e,45.18598,0.0,5.715268599999999,
Grenoble Europole,King Long Store,Grocery Store,5c3f6776054e29002c983505,45.188515,0.0,5.711581,
Grenoble Europole,O'wasabi,Japanese ,5b9ea885cb3fd2002c4ba776,45.188393,0.0,5.722292400000001,
Grenoble Europole,Pitaya,Thai ,5c03e2cbc03635002c63048e,45.191421000000005,0.0,5.727539,
Grenoble Europole,Asian Street Food,Asian ,5d068332e7777d0023c7e20e,45.185306,0.0,5.7226360000000005,
Grenoble Europole,Qualy Sushi,Sushi ,5cbee6b0a0215b002cb50a23,45.180687,0.0,5.7173295,
Grenoble Europole,Sushi Party,Sushi ,4eaa7ecd8b8180c90b6a147c,45.188779769738176,1.0,5.722532471047747,
Grenoble Europole,Saveurs D'Asie,Vietnamese ,58027868d67cd7de61f6af99,45.18892,1.0,5.719037999999999,
Grenoble Europole,Restaurant Chez Mai,Vietnamese ,59a5bb5f588e3633b2f3adfa,45.185997,2.0,5.7153983,
Grenoble Europole,pho38,Vietnamese ,57b2121e38fa0703f229de95,45.188183,3.0,5.719717,
Grenoble Europole,Sakura japanese restaurant,Japanese ,4b73e17cf964a520c0be2de3,45.186333000000005,0.0,5.718308,
Grenoble Europole,Au Dragon D'Or,Asian ,4c13685b82a3c9b65066fbf8,45.18938145661103,1.0,5.722955707413161,
Grenoble Europole,ShunBun,Japanese ,52ebed2111d26676e983aae0,45.1877310506314,9.0,5.725778079481564,
Grenoble Europole,Wasabi Japanese Restaurant,Asian ,58af240801f4331f8fdc8270,45.188408,0.0,5.722283999999999,
Grenoble Europole,Osaka,Sushi ,4cb1a8a7cbab236a3983aa73,45.18736130297726,0.0,5.7197132085966285,
Grenoble Europole,Indochine,Asian ,4e9895a055033ea8ab60210d,45.18278978593204,0.0,5.7166923543551125,
Grenoble Europole,Little Sushi,Sushi ,58270fd97725926587b228ec,45.18588,0.0,5.718888300000001,
Grenoble Europole,Sushi licious,Sushi ,55959d68498e7b1bbdac68b7,45.1878102831054,2.0,5.722000736551367,
Grenoble Europole,Phnom Penh,Chinese ,4db31bef4b226b343d71424c,45.187221,6.0,5.721029,
Grenoble Europole,Little Sushi,Sushi ,53b59f84498e1c8eb2e51e26,45.1905288696289,0.0,5.724885940551758,
Grenoble Europole,Sushi Me,Sushi ,4d922594cbc1224bbe2129d5,45.19051266396309,4.0,5.724939047242261,
Grenoble Europole,Le Jasmin,Cambodian ,5670982f498ea992fc7affb0,45.18845561906327,1.0,5.714790908987336,
Grenoble Europole,Sushi One,Sushi ,4c278ad6136d20a1c31de761,45.1908944704829,6.0,5.71946544044506,
Grenoble Europole,Restaurant Vietnamien DÂU,Vietnamese ,4c63d4c1eb82d13a04bd08d6,45.18667959073586,1.0,5.716155034892237,
Grenoble Europole,Fire Wok,Noodle House,4ed7679f4690bd08d8a81906,45.191213317558706,2.0,5.721635376964163,
Grenoble Europole,Punjabi,Indian ,4ca071bf54c8a1cd11519f4b,45.19009010760235,4.0,5.718192011117934,
Grenoble Europole,Tu-Bong,Vietnamese ,4e3a7992c65b8a6b56ad70eb,45.18472498858432,1.0,5.7183846190064385,
Grenoble Europole,Ozenya,Japanese ,50100a1de4b0871c8a5e7b50,45.190901000000004,2.0,5.724982,
Grenoble Europole,Sawatdee,Thai ,50e7356ae4b00a3cd3e42339,45.190725551234614,1.0,5.714583541156786,
Grenoble Europole,La Muraille de Chine,Asian ,5092b24ae4b0679e93f08a6f,45.1904296875,0.0,5.716644763946532,
Grenoble Europole,Sush1,Sushi ,4bc4cb30461576b07c768032,45.190877941065175,0.0,5.719268167665489,
Grenoble Europole,Kim Ngan,Vietnamese ,4c810df7d22d199c90d2db93,45.18593278997612,1.0,5.7154399220966345,
Grenoble Europole,Le Jade,Vietnamese ,4cc46dd7d43ba14388f666f8,45.184540000000005,0.0,5.721225,
Grenoble Europole,Dau,Asian ,4fb23774e4b0e08c1df9ff38,45.186051,0.0,5.715977,
Grenoble Europole,SushisMe,Sushi ,513b91b3e4b0a2c58f2f0f55,45.189284,0.0,5.72227,
Grenoble Europole,La Baie D'Ha Long,Chinese ,4df50a19b0fb807158c7b0c0,45.185751,0.0,5.719286,
Grenoble Europole,Little Koi,Asian ,53177018498eacaa03ab2208,45.18471136613554,3.0,5.7213819879357635,
Grenoble Europole,Sushi Chez Vous,Japanese ,51eee215498ea99f340700e6,45.18715,0.0,5.719009,
Grenoble Europole,Parfums D'Asie,Asian ,4df5e7e522718759f8278758,45.182867855947755,,5.717509880886987,
Grenoble Europole,Mr Woo,Asian ,4e907fa6b63456ab95743669,45.184754572085296,,5.720350935515363,
Grenoble Europole,Hong Kong,Asian ,4badaebdf964a520fa623be3,45.18916377144203,,5.721899487233392,
Grenoble Europole,Wok & Wok,Italian ,4c4d61dfd667d13a733dbd9e,45.18923568315621,,5.720593929290772,
Grenoble Europole,sushi me,Japanese ,4b7935b8f964a5202aef2ee3,45.18584493653469,,5.718726390160986,
Grenoble Europole,Hippopotamus Steakhouse,BBQ ,5d41b47845a63e00089bd652,45.190880974986065,,5.727111385250055,
Grenoble Europole,Hippopotamus,BBQ ,51cf41a0498e3b445de78b96,45.19084194397088,,5.727400867117527,
Grenoble Europole,O'Bagel,Bagel ,529767f4498eee0bb8ee37c6,45.18939208984375,,5.720839023590088,
Grenoble Europole,California Bagel,Bagel ,526111a7498e183063ef097c,45.19067931703264,,5.726668125135312,
Grenoble Europole,Brioche Dorée,Bakery,51f619da498e688522a895a8,45.19123940167128,,5.714687705039978,
Grenoble Europole,La Fournée,Bakery,4f8849a0e4b039b1440447d3,45.18862429161135,,5.712611072216134,
Grenoble Europole,La Talemelerie,Bakery,4e2e99a8d4c058fdbeeab0dc,45.18564764358638,,5.722585104040033,
Grenoble Europole,Boulangerie Du Pain Sur La Planche,Bakery,512256fbe4b061129fd4cc82,45.187913,,5.72286,
Grenoble Europole,Banette,Bakery,4f3df825e4b0e4bab94fb6e5,45.18861932518268,,5.715185624154144,
Grenoble Europole,"Boulangerie, Pâtisserie J.M Coste",Bakery,4e54cb2b81dc776fa5e1647d,45.190052301482154,,5.7161736488342285,
Grenoble Europole,Pain & Friandises,Bakery,4eae9cdc775bad292fe443e1,45.187657,,5.719602,
Grenoble Europole,Maison Floran,Bakery,5b90d1661a29250025fdc343,45.18808,,5.723998,
Grenoble Europole,Chocolatier Ferrazi,Bakery,4bd57d4acfa7b713ddcf25da,45.18230907885204,,5.716806650161742,
Grenoble Europole,Maison Manival,Bakery,58e628a1a4367c4a450aa7cf,45.18316,,5.7171035,
Grenoble Europole,Le Fournil Jean Jaurès,Bakery,5a6ae1e91108ba3837a969c2,45.186386,,5.718248,
Grenoble Europole,Boulangerie Campaillette,Bakery,4c9ccc8b8afca093b584f015,45.194269,,5.718379,
Grenoble Europole,Louis Boulangerie pâtisserie,Bakery,4f0837efe4b0ad9c24f46cab,45.19109892459587,,5.720163487428484,
Grenoble Europole,Chardon Bleu,Bakery,4cb30a28db32f04dd31fd44d,45.18937645282082,,5.720825085027447,
Grenoble Europole,Boulangerie Pâtisserie Jacquier,Bakery,570a1ba9498e9e882e2bb003,45.191406,,5.7199073,
Grenoble Europole,La Fabrique SG Gourmands,Bakery,560fa40e498e7652737d4a21,45.1898305143439,,5.717580310026277,
Grenoble Europole,Maison Lenoir Boulangerie,Bakery,505c373fe4b0c8fbe5229cb2,45.187995,,5.7060379999999995,
Grenoble Europole,Boulangerie De L'Aigle,Bakery,4f48b8c3e4b0e445061a37bc,45.18247919815031,,5.718445184736463,
Grenoble Europole,Patisserie Gilles Sarrazin,Bakery,4fbe1549e4b057d1bd996285,45.18849418832826,,5.724672903030579,
Grenoble Europole,La Grange A Pain,Bakery,4e7048e652b140871b2b87fe,45.18596909268941,,5.716077089309692,
Grenoble Europole,L'epicea,Bakery,4d53b02208a7b1f7d1d03492,45.186083059940366,,5.716686992594734,
Grenoble Europole,La Panière Grenobloise,Bakery,4f99633dc2eedb758e5f52f3,45.1910050080543,,5.725228786468506,
Grenoble Europole,Le Palais De Saveurs,Bakery,57fe0f17498ed820f1a7a763,45.186405,,5.7182245,
Grenoble Europole,David Patissier,Bakery,4ffbbafbe4b02c0240324bd8,45.188393,,5.713744,
Grenoble Europole,Boulangerie Sésame,Bakery,55f45189498e4aa9feae2697,45.18818464788214,,5.715012252330779,
Grenoble Europole,Boulangerie Chez Denis,Bakery,50c2f9b8e4b0e9bc06bab555,45.185878,,5.7176919999999996,
Grenoble Europole,L'arret Gourmand,Bakery,4e5b71b2a8098920b3d78bd4,45.190044805991064,,5.715403642494841,
Grenoble Europole,La Huchette,Bakery,4dc17cf2ae60533f34f3109e,45.186399,,5.7183720000000005,
Grenoble Europole,La Cuisine Du Bico Loco Aux Milles Beurettes,Bakery,52d0688a498e8cdf65b24dfb,45.20038604736328,,5.711685180664063,
Grenoble Europole,The Cake Shop,Bakery,4b9fe331f964a520b74737e3,45.18824587584311,,5.721746376337532,
Grenoble Europole,La Boulangerie du Croissant de Lune,Bakery,4cea77190f196dcbdee951ae,45.18313097190653,,5.716701843729846,
Grenoble Europole,La Tamelerie,Bakery,4e4cac78d22d10a6c5ced0b8,45.18504181080503,,5.7057103369078845,
Grenoble Europole,Boulangerie Rue De Belgique,Bakery,4da95a5b5da3ba8a476f2d8c,45.190117,,5.7240720000000005,
Grenoble Europole,Le Florentin,Bakery,4bc82e668b7c9c743cb237cf,45.18849982536728,,5.710514306250255,
Grenoble Europole,à l'envers - bistrot boutique événements,Bistro,5b7d6245bfc6d0003984ef26,45.1898171468621,,5.712974846346698,
Grenoble Europole,cafe du marais,Bistro,5616423f498e95b3957a21cd,45.191583,,5.725263,
Grenoble Europole,Le Jet 7,Bistro,53765982498e435477a33f63,45.18431945531977,,5.705514475706242,
Grenoble Europole,L'Ynsolence,Bistro,53983f7b498e05d90ed80a56,45.189746,,5.718077,
Grenoble Europole,Le Café Curieux,Bistro,4c3f5c09cc410f47860ea861,45.18679231528469,,5.723978196261299,
Grenoble Europole,La Bon Heure,Breakfast Spot,5184c591498e8f5df613d7e4,45.190109,,5.716068,
Grenoble Europole,Fournil st nicolas,Breakfast Spot,4b9faa7bf964a5200f3337e3,45.18975061355667,,5.72579558924883,
Grenoble Europole,Le Coq Hardi,Breakfast Spot,4b8fd85bf964a520326533e3,45.190576558747566,,5.725147785401607,
Grenoble Europole,Fast n'Good,Burger ,57cf1836cd107656c0da2da6,45.186554,,5.718239,
Grenoble Europole,231 East St,Burger ,58b9d865c30f797a72df081d,45.187459999999994,,5.7234115999999995,
Grenoble Europole,Burger King Grenoble Victor Hugo,Burger ,58765b52f229952ac19cc75d,45.189676588102806,,5.724462273033737,
Grenoble Europole,Les Burger De Papa,Burger ,5cfbc5929cadd9002c230d87,45.188835,,5.723868,
Grenoble Europole,Burger Fernand,Burger ,539832cc498ee08ed9e03f8d,45.18856430053711,,5.710316181182861,
Grenoble Europole,Five burger,Burger ,5d45646e046acf0008a249dd,45.190098,,5.725875,
Grenoble Europole,Yes Burger,Burger ,591213ef872f7d1527824c26,45.18345,,5.717261,
Grenoble Europole,Restaurant H3,Cafeteria,59957244e679bc5f683481a4,45.195962,,5.704486,
Grenoble Europole,Hermès,Café,4d5bfa369895b1f76f45e00f,45.190134,,5.715607,
Grenoble Europole,Tower Coffee,,58dd18332b04f862ef9f62a2,45.1881901,,5.72679318,
Grenoble Europole,Café le Provence,Café,4bb2e8142397b713af9a37b3,45.186265,,5.716895,
Grenoble Europole,Le Millesime,Café,51794b1ee4b0cca38cb36868,45.18899173475932,,5.725149422806307,
Grenoble Europole,Café Tempo,Café,4c2c78ea8abca59351b20120,45.1905795270368,,5.71288669368151,
Grenoble Europole,Columbus Café & Co,Café,5e04e282e71f5c0008cc7852,45.18909,,5.7219133,
Grenoble Europole,Café Vélo,Café,535271b111d22102144f7147,45.18458,,5.709644,
Grenoble Europole,Café Jules Verne,Café,4cadd4950c1e6dcbfcba78bf,45.19143782,,5.726466,
Grenoble Europole,Hono Coffee House,Café,5e0f54832b12f500089506b7,45.187737,,5.7224703,
Grenoble Europole,Cafe Leffe,Café,5208e1c611d252a89443d623,45.19081971753824,,5.727398695841492,
Grenoble Europole,Brasserie La City,Brewery,4dd50215ae60a78cec62b921,45.18861830234528,,5.712870495165745,
Grenoble Europole,Brown's,Café,536a2bb9498e2d75d9d1e9ca,45.19200297284849,,5.7272491815307225,
Grenoble Europole,Harper's café,Café,557ff2c7498e003d10386919,45.18553367488409,,5.725148568785452,
Grenoble Europole,Café L'Albatros,Café,4e298294fa762797e5a804fa,45.183948525489825,,5.716967648160692,
Grenoble Europole,CoqTail,Café,4e29a55f483baa8651621cab,45.182965840213,,5.7188987731933585,
Grenoble Europole,L'etage,Café,4c3dafb9a97bbe9a4621fcdd,45.19180827530137,,5.7268616904462695,
Grenoble Europole,Le Détour,Café,4d96043ea2c65481e44fb553,45.18536401776201,,5.722247679219534,
Grenoble Europole,Café Des Délices,Café,5a520303851de5040bd872ae,45.18732,,5.71472,
Grenoble Europole,Le Capri,Café,536cde9a498e8eca7ba52d0d,45.187412515268065,,5.7145559062439215,
Grenoble Europole,Sporting,Café,514b0b2ee4b01a82e247a797,45.190774,,5.727059,
Grenoble Europole,Simply Delicious,Café,5ab913841acf1156f1760d60,45.189136,,5.726823,
Grenoble Europole,Starbucks Coffee,Café,5a60a40b6bdee64056ea8819,45.19148,,5.7144900000000005,
Grenoble Europole,gastronomies Cambodia and thai,Café,56e1805ecd10c84f46ec2263,45.190484999999995,,5.71263,
Grenoble Europole,Café Hugo,Café,50585620e4b0d6991b8330cf,45.18896557168932,,5.724194849156728,
Grenoble Europole,Haagen-Dazs,Ice Cream ,4baf448ef964a52083f43be3,45.19109113444244,,5.727306294944924,
Grenoble Europole,Europole Café,Café,4bfea51bca1920a11297eb81,45.190812251739644,,5.711548349097182,
Grenoble Europole,Le Vixen,Café,4d9f7da1affda35dc8a5a548,45.188295000000004,,5.708471,
Grenoble Europole,Le Select,Café,4d6bd1ced47bb60c2455a3aa,45.190807,,5.718388,
Grenoble Europole,Caffe Trevi,Café,4e589f9d1f6e804280ba4d8f,45.18914873900727,,5.722307756739122,
Grenoble Europole,Cafe Mari,Café,4c5349d7a724e21e793b80f4,45.182376,,5.710546,
Grenoble Europole,Le Jardin,French ,4d9d96647509b1f70da543a0,45.18936864429733,,5.726941675568867,
Grenoble Europole,Big Mama,Cajun / Creole ,56e46635498e8a4e8b6a4735,45.18694728786935,,5.7208257871127595,
Grenoble Europole,Le Point A Pitre,Caribbean ,4d9224477379b60c0e0cdc07,45.195516999999995,,5.722242,
Grenoble Europole,Starbucks,Coffee ,5891905d00841a380193f1b5,45.19107871982726,,5.713755206394234,
Grenoble Europole,Café Raymond Torrefacteur,Coffee ,58c550c5b21014507b8c4538,45.182672065941894,,5.717377960681915,
Grenoble Europole,French Coffee Shop,Coffee ,4e2ef0276284021061ec58b1,45.18539865093194,,5.722494472297429,
Grenoble Europole,KARACTERES,Coffee ,51e57597498e2b40013f62f4,45.19162371700941,,5.727137358329069,
Grenoble Europole,Le Bistrot,Coffee ,51e96594498e8bada7785d5a,45.190878000000005,,5.725084,
Grenoble Europole,La Brûlerie Des Alpes,Coffee ,59044c5812c8f05bcaeb6fdb,45.182635999999995,,5.7175136,
Grenoble Europole,Starbucks Coffee,Café,5a60a40b6bdee64056ea8819,45.19148,,5.7144900000000005,
Grenoble Europole,Cafes Folliet Grenoble,Coffee ,54cfb8ee498e79a012d293ac,45.189877,,5.7172480000000006,
Grenoble Europole,L'Absynthe,Coffee ,5299f3e511d2662aca41cb48,45.18915556286272,,5.7260899928416285,
Grenoble Europole,coffee machine,Coffee ,52d6ad7611d2f8a74c2796bc,45.191196999999995,,5.717148,
Grenoble Europole,LETREIZH Comptoir breton crêperie,French ,52f951a411d2b533175f64f3,45.18669501788235,,5.7207441329956055,
Grenoble Europole,Creperie de Gordes,Creperie,4bae5941f964a52028a63be3,45.19224287227459,,5.727457735704559,
Grenoble Europole,Saveurs Et Delices,Deli / Bodega,5d4199f73e7a2e00070afa1c,45.18623,,5.7059492999999994,
Grenoble Europole,L'epicerie Au Comptoir,Deli / Bodega,4f3e0d59e4b038a0549d0c1a,45.18474792528264,,5.721385665919191,
Grenoble Europole,Norbert Meunier Chocolatier,Dessert ,51b325d8498e34b697ed9513,45.19009302983993,,5.714973993236551,
Grenoble Europole,La Fournée,Bakery,4f8849a0e4b039b1440447d3,45.18862429161135,,5.712611072216134,
Grenoble Europole,Le Chardon Doré,Cupcake ,4e32ad58fa76d813b3de6c9f,45.191512716883366,,5.727286891441555,
Grenoble Europole,Leonidas,Cupcake ,4f4ba450e4b0156c3213f457,45.189956,,5.7248,
Grenoble Europole,Pâtisserie Étienne Culot,Dessert ,4de8809bb0fbcb7c9ac514f9,45.185519120479796,,5.72240739265274,
Grenoble Europole,Magic Candy Bar,Candy Store,55422b82498e8c80b2363d07,45.1886791261233,,5.719305135454445,
Grenoble Europole,L'arche Aux Fruits,Ice Cream ,4dbd7a9c93a08f9274d5f3e5,45.19216470494115,,5.7278199315318,
Grenoble Europole,Patisserie Des Lys,Cupcake ,4e1c6c0152b1c2b69f34b058,45.188210999999995,,5.717589,
Grenoble Europole,The Cake Shop,Bakery,4b9fe331f964a520b74737e3,45.18824587584311,,5.721746376337532,
Grenoble Europole,Haagen-Dazs,Ice Cream ,4baf448ef964a52083f43be3,45.19109113444244,,5.727306294944924,
Grenoble Europole,Grand Comptoir,,52de225a11d2f7f7b3f22045,45.19115085019953,,5.714732341875724,
Grenoble Europole,Le Comptoir,,4f4f6562e4b04078850708ab,45.184979999999996,,5.70584,
Grenoble Europole,Quai D'Orsay,,4e86db7477c8aec59fde691d,45.185462,,5.720495,
Grenoble Europole,Grain De Soleil,,4d7b66c4136bf04dc50f4b8d,45.18884959016643,,5.726978334012336,
Grenoble Europole,Cose Sia,,4f2c44a6e4b0de35536e9354,45.19221091342786,,5.724430645459343,
Grenoble Europole,L'ynsolence,,4e0c6822c65bd1c17b6d6c63,45.189766,,5.71811,
Grenoble Europole,Cumin & Chantilly,,538c6e45498e34b97adad3a9,45.19276282802969,,5.7247669397092995,
Grenoble Europole,L'endroit,,51388404e4b0cdf573f1d470,45.186134,,5.722936,
Grenoble Europole,L'oxalis,,507ff3c3e4b07d456cfdac8b,45.18931,,5.714561,
Grenoble Europole,Le Balthazar,,4f952db5e4b01143d352c3a2,45.191205723827935,,5.72197291585596,
Grenoble Europole,La Table des Bergers,,508a6ce4e4b0c2bf3e9e0850,45.186455,,5.72136,
Grenoble Europole,Beso Café,,50373e84e4b0df99d53330a5,45.18501132329946,,5.705686015742129,
Grenoble Europole,Le Café Des Zébulons,,4fa50cbfe4b0ddd495d3eaff,45.18248,,5.721868,
Grenoble Europole,Fresh'art Café Restaurant,,504f15f0e4b0d661629c1645,45.184833461457615,,5.705874142417097,
Grenoble Europole,Crous,Dumpling ,4f4cbabce4b051dc47931dc4,45.19025494214029,,5.708342360327697,
Grenoble Europole,Калинка,Dumpling ,516daeefe4b0467e8a5dcbcb,45.18515678834621,,5.721073706308294,
Grenoble Europole,La Tchoutchoura,Eastern European ,4dde2132636562354f43c551,45.18922087501818,,5.718524500195288,
Grenoble Europole,Kalinka,Eastern European ,4ee27421f9ab478e59795af3,45.18559117574733,,5.722762491269871,
Grenoble Europole,Royale Restaraunt,Eastern European ,4fa024d9e4b0fc3ce4171f51,45.1943861623672,,5.72715483466913,
Grenoble Europole,Tsarevets,Eastern European ,4f3ad34fe4b0ccd5ed592097,45.184809684216994,,5.7223908858380845,
Grenoble Europole,Le Phénicien,Falafel ,4b7eef5df964a5208b0a30e3,45.18823112775874,,5.716988216598697,
Grenoble Europole,Le palais,Falafel ,4b798656f964a520d1fe2ee3,45.189324,,5.724343,
Grenoble Europole,barbecue damas,Falafel ,572998ef498efb88db8623d9,45.188137,,5.717313,
Grenoble Europole,McDonald's,Fast Food ,4bc5a2cd41cb76b04e8f3e6f,45.19079972508667,,5.714793983850933,
Grenoble Europole,Subway,Sandwich ,58d01a15c9602779d189a380,45.1914107501089,,5.714547115667642,
Grenoble Europole,McDonald's,Fast Food ,4bc86ff014d79521fd0469e9,45.183065675930756,,5.7175632402485075,
Grenoble Europole,Franprix,Supermarket,4eb81615e5fa17fc87e2762b,45.18588,,5.7138800000000005,
Grenoble Europole,Subway,Sandwich ,4c90ceb97088a143065dab43,45.18368210277068,,5.723131495700841,
Grenoble Europole,Franprix,Supermarket,4ca49e377f84224b13cbce58,45.1887,,5.72246,
Grenoble Europole,Maxi Tacos,Fast Food ,5cadce18a42362002c01cb13,45.18326,,5.717069599999999,
Grenoble Europole,La Fantasia,Fast Food ,4ffdbd7ee4b0072241b6405c,45.19108793277036,,5.726532645667916,
Grenoble Europole,Hangover Fresh Poutine,Fast Food ,5cbb6d65a5a315002dee98e1,45.187527,,5.7233047,
Grenoble Europole,Fire Wok,Noodle House,4ed7679f4690bd08d8a81906,45.191213317558706,,5.721635376964163,
Grenoble Europole,McDonald's,Fast Food ,4b86dee8f964a520faa231e3,45.19017594036677,,5.72617208161479,
Grenoble Europole,Franprix,Supermarket,50058d4be4b068f792ec6905,45.189040000000006,,5.72635,
Grenoble Europole,Picual Minatec,Fast Food ,4c457b03dd1f2d7f653a81f9,45.19531846046448,,5.710873603820801,
Grenoble Europole,Anotalia,Fast Food ,5274d59011d2e7faab7d580d,45.189569565071615,,5.716818459903027,
Grenoble Europole,Délice Berriat,Fast Food ,503f44dbe4b04a42bd81929e,45.18970079511917,,5.707855770256157,
Grenoble Europole,syphax,Fast Food ,54141247498e36563a1b0616,45.191018,,5.719745,
Grenoble Europole,Recto Verso,Fast Food ,537dd05b498e02df0778651a,45.188309000000004,,5.7169099999999995,
Grenoble Europole,California Bagel,Bagel ,526111a7498e183063ef097c,45.19067931703264,,5.726668125135312,
Grenoble Europole,Wok & Wok,Italian ,4c4d61dfd667d13a733dbd9e,45.18923568315621,,5.720593929290772,
Grenoble Europole,Speed Burger,Fast Food ,507866d0011c832d90ad2b38,45.1805924210538,,5.717107057571411,
Grenoble Europole,La ferme à Dédé Il,French ,5574b76d498e9d09b4b1e381,45.1898962318989,,5.716622406858772,
Grenoble Europole,Charcuterie Delas,Food Court,4e771c4d45ddd4324075ef63,45.18845285815771,,5.713279848223307,
Grenoble Europole,Salle hors-sac,Food Court,4f1ab295e4b0c74ef10c473f,45.19755,,5.71155,
Grenoble Europole,Brasserie du Palais,French ,4cef9ba062ef6dcbb72eff59,45.19052393061658,,5.71280378644316,
Grenoble Europole,Bistrot D'Emile,French ,4e01ca26b61c90045005f067,45.19081131235127,,5.711596175104956,
Grenoble Europole,Le Gratin Dauphinois,French ,5aea0a7cacc5f5002c2f5f3f,45.190585999999996,,5.7164839999999995,
Grenoble Europole,LETREIZH Comptoir breton crêperie,French ,52f951a411d2b533175f64f3,45.18669501788235,,5.7207441329956055,
Grenoble Europole,L'Ardoise,French ,4b7c55e0f964a5200f8d2fe3,45.190558067008546,,5.725345802718607,
Grenoble Europole,La ferme à Dédé Il,French ,5574b76d498e9d09b4b1e381,45.1898962318989,,5.716622406858772,
Grenoble Europole,Brasserie Solstice,Brasserie,5af48c1be65d0c002cd6aee4,45.182811,,5.7178580000000006,
Grenoble Europole,Le boeuf au Comptoir,French ,4b9e2617f964a520b0cd36e3,45.191182635517976,,5.7214165632823715,
Grenoble Europole,Les Mouettes,French ,4eb46e21f790d87d024be6fc,45.192396233448314,,5.71864128112793,
Grenoble Europole,Le Saint-vincent,French ,52568721498e7c527e9ca8ad,45.19378151009205,,5.725664749014642,
Grenoble Europole,La Voisine,French ,4df88e36b61ce821ebabbf70,45.187733,,5.722996,
Grenoble Europole,Sesame Boulangerie,French ,4b7e59b4f964a52043ea2fe3,45.187956,,5.718966,
Grenoble Europole,La Baratte,French ,4eb5225629c212fb6c4134c0,45.18554550986529,,5.722482731367263,
Grenoble Europole,Le Beguin,French ,5b28e6e323a2e600395f1954,45.191252,,5.725289,
Grenoble Europole,L'Envie des Mets,French ,4f9302b5e4b0a20c261a1798,45.18659820576664,,5.723022690599402,
Grenoble Europole,Le Saint Christophe,French ,4b9a2656f964a52071a135e3,45.187275955973185,,5.711080904724071,
Grenoble Europole,Le Bistrot Parisien,French ,504839f3e4b0756f6700d548,45.18969432507186,,5.71856316667942,
Grenoble Europole,Creperie le Célia,French ,4bfcf5488992a593c55cabb0,45.18271085425027,,5.718880774707682,
Grenoble Europole,La Fondue Savoyarde,French ,4c56a04d6418a593ac6c7d0e,45.19007478590706,,5.725513559234204,
Grenoble Europole,zakhang,French ,55b93372498efb399e713d6c,45.19287197236124,,5.723870530812611,
Grenoble Europole,L'Aiguillage,French ,4ef1c02393adff223da21225,45.189009000000006,,5.712773,
Grenoble Europole,La  Girole,French ,4f46be66e4b024e50a33f81c,45.19085378585364,,5.7218170166015625,
Grenoble Europole,L'epicea,Bakery,4d53b02208a7b1f7d1d03492,45.186083059940366,,5.716686992594734,
Grenoble Europole,La Marmite Dauphinoise,French ,55c098f2498e1d331d84e4ec,45.191642726345975,,5.72103210751865,
Grenoble Europole,Pivano,French ,4bd17c5041b9ef3b30f8fbe5,45.18935666438825,,5.720057487487793,
Grenoble Europole,Brasserie du Carré,French ,4c31b7653896e21e8062e790,45.19299030303955,,5.709028244018555,
Grenoble Europole,Le Petit Jardin,French ,5ad213a2c8b2fb10ea0211e1,45.191437,,5.7269597,
Grenoble Europole,Le 69,French ,4dc12a29e4cda3b87f1ab6ac,45.185731496030456,,5.714696775012372,
Grenoble Europole,La Petite Idee,French ,4d8627e281fdb1f70cd91fc0,45.190721180382134,,5.719764767031064,
Grenoble Europole,L’iridescence,French ,5ba8d1893fcee8002cf9e03d,45.190587,,5.725092,
Grenoble Europole,Hippopotamus Steakhouse,BBQ ,5d41b47845a63e00089bd652,45.190880974986065,,5.727111385250055,
Grenoble Europole,Siamo Noi,Italian ,58e77c1f7220e6211234582b,45.180677,,5.718274,
Grenoble Europole,Auberge Napoleon restaurant,French ,4b894d4ef964a520cd2932e3,45.191292329128636,,5.726323127746582,
Grenoble Europole,Le subtil,French ,4f228bd7e4b000874054b810,45.1885514348165,,5.717091980673642,
Grenoble Europole,La table d'Algregaur,French ,4c75027bc219224b1535a128,45.186049,,5.718889,
Grenoble Europole,Le 55,French ,4e00a2f1cc3fe1394f70b500,45.18989351550304,,5.716817378997803,
Grenoble Europole,Saint-Vincent,French ,4c36f3f6dfb0e21ee8dfaba8,45.18997113498309,,5.716609155344868,
Grenoble Europole,Au Bureau,Pub,4bffa869f61ea5931788ea13,45.19085527512309,,5.7274879574293855,
Grenoble Europole,Les Olivettes,French ,4d873a6a5e70224b34dc4409,45.181764,,5.718298,
Grenoble Europole,Grenette Cafe,French ,4c94b6dcf7cfa1cd8c16b615,45.190709000000005,,5.712661,
Grenoble Europole,Le 10 Vins,French ,4d07da05f683721eb18c1c65,45.191710998371356,,5.725070278253934,
Grenoble Europole,Chabert Et Fils,French ,5197e20e498e92087384f161,45.18769073486328,,5.723233222961426,
Grenoble Europole,Le Goûter,French ,4eab0c33b803cf1ffb5ef79a,45.185679,,5.7212559999999995,
Grenoble Europole,La Fortune Du Pot,French ,4f50af83e4b0571ec4aad19c,45.187533,,5.712425,
Grenoble Europole,Brasserie des Fruites du Mer,French ,52c71858498ed41cab471498,45.19068,,5.725880999999999,
Grenoble Europole,l'elyse,French ,53231ba8498e51cf0d888996,45.18933868408203,,5.724559783935548,
Grenoble Europole,L'assiette bavarde,French ,5659f5db498e1bd8643723a1,45.1847093041055,,5.7056972565487385,
Grenoble Europole,Le Comptoir d'Hippolyte,French ,4ca6488814c337042722be3b,45.189253146992044,,5.715226875047318,
Grenoble Europole,Taverne D'antan,French ,4d8df0e5788c5481594b2cfd,45.183281,,5.723091,
Grenoble Europole,Les 2 Savoie,French ,4ed536aecc216e1a53f192b2,45.189327,,5.722347,
Grenoble Europole,Bar Continental,Gastropub,4f070045e4b0803b67401833,45.19040469940004,,5.715894489622335,
Grenoble Europole,La Brasserie des Fleurs,Gastropub,4ddf7f6f45dd95acd4f01b35,45.19081240843414,,5.727380945327001,
Grenoble Europole,Le Mix Restaurant,Gastropub,4b97826df964a520980635e3,45.192320624246456,,5.727546215057372,
Grenoble Europole,La Frise,Gastropub,4f2bd5e6e4b0a98a48db464f,45.18890843863007,,5.707939884482106,
Grenoble Europole,Le Touquet,Gastropub,4c45d98f429a0f47e7b34a1e,45.18948301582119,,5.721107334941998,
Grenoble Europole,Le Logis,Gastropub,5183ada9498ed063b09508db,45.19623565673828,,5.716965675354004,
Grenoble Europole,le polykalo restaurant grec,Greek ,4b915b36f964a520d4b533e3,45.186686209954004,,5.722100728441633,
Grenoble Europole,Bob-Dog,Hot Dog ,5c94e1c9475abd002ca76fd9,45.185509,,5.7060059999999995,
Grenoble Europole,Shiva Restaurant Indien,Indian ,4e23df468130e92fc6a506ec,45.18971960654145,,5.717289447784424,
Grenoble Europole,Punjabi,Indian ,4ca071bf54c8a1cd11519f4b,45.19009010760235,,5.718192011117934,
Grenoble Europole,Le Bombay,Indian ,4b74385cf964a520eacd2de3,45.18694343480305,,5.718725752708952,
Grenoble Europole,Le Katmandu,Indian ,510d78a6e4b075af0b6dc9cc,45.18551799446782,,5.721722464066,
Grenoble Europole,Escale Indienne,Indian ,5853e7e89f25833d2154022e,45.188383,,5.711016000000001,
Grenoble Europole,Le Restaurant Lanka,Indian ,4c4893dd1879c9b668f1e143,45.1870845355921,,5.718683449930947,
Grenoble Europole,o'naan,North Indian ,55ad4f0f498ef4f4abd66bf7,45.188507,,5.713853,
Grenoble Europole,Indian Tiger,Indian ,5a9007ecc824ae5f72e3a6b4,45.188990000000004,,5.719725599999999,
Grenoble Europole,Rajah,Indian ,5149a047e4b05d9353bdf88d,45.19143473093221,,5.72103298304604,
Grenoble Europole,Le Punjab,Indian ,4e57e118b9935d203cffa23e,45.183287407692355,,5.717165709786494,
Grenoble Europole,Prince indien,Indian ,4c2342d07e85c9287337bd21,45.18816862844875,,5.71909081465092,
Grenoble Europole,La Fleur de Thym,Indian ,510ffb35e4b0ae025cb258f4,45.193744,,5.71139,
Grenoble Europole,Chez Pierre,Italian ,4c28edf4ce3fc928d4f36d88,45.189947,,5.715547,
Grenoble Europole,la gazzetta,Italian ,4b87b9bbf964a520cfc831e3,45.1907344844843,,5.718108061916923,
Grenoble Europole,Le Comptoir Italien,Italian ,5e4599ece2da4a0008c83775,45.18542,,5.721673,
Grenoble Europole,L'Osteria,Italian ,56d975a5498e3f094b8b5495,45.189284,,5.718847,
Grenoble Europole,Sicily Restaurant,Italian ,5c5ec2eee97dfb002c2d733c,45.194817,,5.714544999999999,
Grenoble Europole,L'Aiglon,Italian ,4dff209bfa76b5130d77e386,45.18370103351314,,5.717972361808322,
Grenoble Europole,Troquet Torelli,Italian ,556305bd498ef3524274bf7e,45.18750381469727,,5.7049102783203125,
Grenoble Europole,Ristorante Casa Nova,Italian ,503d0bd4e4b08a79e96080b4,45.19385789794227,,5.725889110039117,
Grenoble Europole,Il Napoli,Italian ,5169abcde4b013b75fe43aa0,45.19052854398392,,5.725444340600347,
Grenoble Europole,Via Aurelia,Italian ,4b86da4bf964a520b6a131e3,45.18949805296362,,5.725560312381496,
Grenoble Europole,Lo zafferano,Italian ,5348364a498e451f8de10264,45.192168,,5.724278,
Grenoble Europole,Gazzetta Caffe,Italian ,51f50319498e0d9f1f35e7af,45.19086814196988,,5.7187310663177024,
Grenoble Europole,La Cucina,Italian ,53c57a44498ea05b20df4b9b,45.193480887787935,,5.725540626196644,
Grenoble Europole,Mezzo di Pasta,Italian ,523c1f0e11d2868b7748eabb,45.188778988963186,,5.722530650833401,
Grenoble Europole,La Chapelle,Italian ,5ceee3f8bb8d36002c32ed4d,45.186170000000004,,5.719713700000001,
Grenoble Europole,La Toscana,Italian ,50d613dee4b021b2856ce271,45.194161,,5.725967,
Grenoble Europole,La bruschetta,Italian ,4c2ce413b34ad13a6409ecce,45.193536500263775,,5.721972366124404,
Grenoble Europole,La Dolce Vita,Italian ,4e7e28ab5503416b24cc2178,45.19371745863746,,5.724773804664718,
Grenoble Europole,La Stampa,Italian ,53f8d8b6498ebfcd2a0b7633,45.19011306762695,,5.718061923980713,
Grenoble Europole,la tonelle,Italian ,4f744c03e4b0f06c045a14ea,45.19550021828329,,5.715629170883418,
Grenoble Europole,Syfax Kebab,Kebab ,4bfede5168c7a5937ece3f44,45.19087997817463,,5.71959385914956,
Grenoble Europole,Kebab Le Palais,Kebab ,4e012e6ad1647696f122b74d,45.18843984707985,,5.713550448417664,
Grenoble Europole,Mendo Kebab,Kebab ,4c80d38a47cc224b6c19769f,45.182448204042785,,5.717165509568021,
Grenoble Europole,Marmaris kebab,Kebab ,4c755ea9b474a1cdcc11b9bf,45.19038499447816,,5.725464820861816,
Grenoble Europole,Nabab Kebab,Kebab ,4fa26819e4b0b50902e6dd13,45.19001270886623,,5.725796934342778,
Grenoble Europole,Batman Kebab,Kebab ,4c33a14c16adc92891efc39c,45.1874133725501,,5.7237869036544975,
Grenoble Europole,restaurant,Kebab ,57288198498ea3761f7b776c,45.18087,,5.7151976,
Grenoble Europole,Anatolia Kebab,Kebab ,51597d25e4b0a71b13b773f6,45.18980254355995,,5.717295285242501,
Grenoble Europole,Efes Kebab,Kebab ,4c054b620d0e0f479420059a,45.19303,,5.72452,
Grenoble Europole,Dijlé Kebab,Kebab ,4f9e750ce4b04a1eee6a9c65,45.186897803592814,,5.718311424824054,
Grenoble Europole,Firat Kebab,Kebab ,4e0b0bbb18a86d2caa76fc94,45.18837771908254,,5.717044301417206,
Grenoble Europole,Botan Kebab,Kebab ,503bbc96e4b0bce918302030,45.188511,,5.7192300000000005,
Grenoble Europole,Center kebab,Kebab ,4e8ca6a961af432b35994076,45.189449111660025,,5.72572385632355,
Grenoble Europole,Al Tun Tun,Argentinian ,5ccb2ea1a4b51b002c7c3855,45.187191999999996,,5.712141,
Grenoble Europole,Materia Grenoble,Argentinian ,5ccc21a031fd14002cc36458,45.184723999999996,,5.722081,
Grenoble Europole,Le Miramar,Mediterranean ,4e71e07baeb79ea0952015cf,45.187882,,5.714729,
Grenoble Europole,Shawarma liban,Moroccan ,4b86d56ff964a52070a031e3,45.191206,,5.7276169999999995,
Grenoble Europole,Tacos de Grenoble,Taco ,4c28e546ed0ac9b6a3f160aa,45.18826089781054,,5.71920604115629,
Grenoble Europole,El Itacate,Mexican ,56eed926498e1bc48fb0187d,45.190628000000004,,5.717512,
Grenoble Europole,La Salsita,Mexican ,4d36849326e0a1cd4b936a9e,45.18758663953004,,5.723535068508372,
Grenoble Europole,La Fantasia,Fast Food ,4ffdbd7ee4b0072241b6405c,45.19108793277036,,5.726532645667916,
Grenoble Europole,Le Bosphore,Taco ,4ca9c5d3f47ea1436d078221,45.181708,,5.716991,
Grenoble Europole,El Tex Mex,Mexican ,4bab4ab1f964a520439e3ae3,45.19458285065176,,5.7190085375281905,
Grenoble Europole,Viva Mexico,Mexican ,5b576fd3464d65002cd3fb23,45.183859999999996,,5.716069,
Grenoble Europole,El Sombrero,Mexican ,4b95537af964a5208e9c34e3,45.18852184112129,,5.723772385732684,
Grenoble Europole,El Sombero,Burrito ,4daafde36e81162ae7e26cd0,45.188425905193995,,5.72371905048752,
Grenoble Europole,Bonito food,Burrito ,4fa4404ce4b0244335cc167f,45.18437045238193,,5.720996415066419,
Grenoble Europole,Blue box,Taco ,4b69692ef964a52061a12be3,45.188566089198034,,5.7119977559528206,
Grenoble Europole,Snack-Café,Taco ,51406143e4b091d09626e317,45.191088418953505,,5.726692783415612,
Grenoble Europole,BARBQ Libanais (cuisine au grill),Lebanese ,5a9afe3c6a59506d7ae649f1,45.189482182190815,,5.718618750506722,
Grenoble Europole,Le Mézzé,Middle Eastern ,4ca1c675d3c2b60c9121e8bc,45.18846492621374,,5.718096859268098,
Grenoble Europole,Le Cedre (restaurant libanais),Middle Eastern ,4bad1492f964a5207e2b3be3,45.18505672744182,,5.7231239067750925,
Grenoble Europole,Le Mézzé Pavillon,Middle Eastern ,4ff5d7cbe4b04840329ae16c,45.1842419490112,,5.72072438424983,
Grenoble Europole,L'Etoile Des Délices,Middle Eastern ,4e1c6a01e4cdf4c87bdce49c,45.188518882697146,,5.7109587090372935,
Grenoble Europole,Casa Eat,Middle Eastern ,5186ad2a498e8f5d0852bdb6,45.189774,,5.721072,
Grenoble Europole,Restaurant Lokanta,Middle Eastern ,50328d84e4b07969e256ace4,45.185515,,5.721474,
Grenoble Europole,L'Exception,French ,4f8d469ee4b05ee6cdabcdbe,45.19164393411269,,5.720188991069447,
Grenoble Europole,Madam,Modern European ,5b3f71d22b274a002cf3952a,45.186066,,5.7200537,
Grenoble Europole,Charabica,Pet Café,5a4e3ad27dc9e12263a6f684,45.187863,,5.72234,
Grenoble Europole,L'Adagio,Pizza ,4eb19c656c25700faa63c8c9,45.19114608594268,,5.720536288175661,
Grenoble Europole,Liberty Pizza,Pizza ,4c86173bd4e23704b3d08788,45.19035257572491,,5.7154707695513665,
Grenoble Europole,La Cantina D'Anna,,4e74d3c7b61c22c637e60ddc,45.18805755,,5.72310158,
Grenoble Europole,Casanova,Pizza ,51e59ba7498e5dc09383c84c,45.19380955109481,,5.72569018905522,
Grenoble Europole,Domino's Pizza,Pizza ,4c278b343703d13a0224a736,45.188545614317334,,5.718821312251066,
Grenoble Europole,Sos Pizza & Sos Apero,Pizza ,4df9011c52b1e8ca02d0872e,45.185857,,5.718303,
Grenoble Europole,La Florentine,Pizza ,4d8bb37737c6a143b010b00c,45.193687282229604,,5.7248828529133835,
Grenoble Europole,Notte E Di,Pizza ,51d479a3498e7822143b281c,45.193827168440244,,5.7251275731904165,
Grenoble Europole,La Chandelle,Pizza ,4e5fe12252b16adb6c2decc9,45.19117134456012,,5.720918782604526,
Grenoble Europole,pizzeria di napoli,Pizza ,506355dee4b0d41cab36bbe3,45.19042235886211,,5.7256146976560185,
Grenoble Europole,La Toscana,Italian ,50d613dee4b021b2856ce271,45.194161,,5.725967,
Grenoble Europole,Pizzeria Di Roma,Pizza ,51d953b7498ee4694eef7111,45.193725141971996,,5.726029101524406,
Grenoble Europole,Veloce Pizza,Pizza ,528e67b6498e6c5a7946fbbf,45.185434,,5.721941999999999,
Grenoble Europole,Pizzeria Vartan,Pizza ,4f734c6ee4b0b7ca3b509300,45.18498485728141,,5.7057063811765145,
Grenoble Europole,Le Festival Des Pizzas,Pizza ,4e7e2cd1775b8cdb6b030c65,45.19377571489576,,5.724548367324839,
Grenoble Europole,Forno Presto,Pizza ,4d87b1cf7e8ef04d8e844cbe,45.18361330032349,,5.71739673614502,
Grenoble Europole,Pizzeria des Quais,Pizza ,50eb36d3e4b07c15cdcc0c55,45.194034134966344,,5.726089105595433,
Grenoble Europole,Pizzeria Ristorante,Pizza ,4d56ee28c6edf04d51edd6a2,45.188665,,5.7077029999999995,
Grenoble Europole,L'escarette,Pizza ,4ba12b57f964a520629e37e3,45.188251,,5.715782,
Grenoble Europole,Stratto,Pizza ,50fd53fde4b07dd924067a9b,45.19021546652886,,5.726722337728641,
Grenoble Europole,Da Vinci Pizza,Pizza ,50773edde4b0ff8ca7e8f276,45.186920537619784,,5.724471803974898,
Grenoble Europole,La petite Toscane,Pizza ,5082fea5e4b0e99d0bb34712,45.1913063111601,,5.706726497681498,
Grenoble Europole,La Scala,Pizza ,4ddeab3de4cd19127385e629,45.186145,,5.720644,
Grenoble Europole,Le Paparazzi,Pizza ,515d6675e4b081fabca17595,45.188137,,5.707653,
Grenoble Europole,Trib' Café,,590b0a55b3d8e2687b7833dc,45.190876,,5.7134529999999994,
Grenoble Europole,Subway,Sandwich ,58d01a15c9602779d189a380,45.1914107501089,,5.714547115667642,
Grenoble Europole,Tower Coffee,,58dd18332b04f862ef9f62a2,45.1881901,,5.72679318,
Grenoble Europole,Subway,Sandwich ,4c90ceb97088a143065dab43,45.18368210277068,,5.723131495700841,
Grenoble Europole,Lucien & la Cocotte Cie,,55f5735c498eaad3a9dd9de4,45.18438207019946,,5.723121001680508,
Grenoble Europole,Le Casse-Croute À Dédé,,5b50623f1cf2e1002c3ac702,45.189968,,5.716085,
Grenoble Europole,La Cantine Des Filles,,5e68c75e7e5b020008fb7fe6,45.190907,,5.7109879999999995,
Grenoble Europole,Chefs De Gare,,5c7bd933a0215b002c1188ad,45.191216,,5.7147239999999995,
Grenoble Europole,Novotel Cafe,,4eca990402d5888e9f704c83,45.19137947450386,,5.712622448564253,
Grenoble Europole,Gourmet Bar,,5c520cc9fd9d73002c495ebe,45.190746000000004,,5.7128487,
Grenoble Europole,La Cantina D'Anna,,4e74d3c7b61c22c637e60ddc,45.18805755,,5.72310158,
Grenoble Europole,Ma Petite Dame,,5dc1756fcf8e7a0008835456,45.18885,,5.71448,
Grenoble Europole,La Salle À Manger,,5bcf201486bc4900391ca55b,45.191649,,5.715306,
Grenoble Europole,La Belle Electrique,Concert Hall,5494402c498eea3f5871a610,45.18705152633605,,5.704388965536571,
Grenoble Europole,Une Semaine Sur Deux,,507e8af8e4b02081a091789b,45.1854796666123,,5.7216567481155485,
Grenoble Europole,Hotel Trianon Grenoble,Hotel,4bd74882304fce72224f33ab,45.18514013820005,,5.7212383486917755,
Grenoble Europole,Les Voyageurs,,4f258f6ce4b006e5c34abb53,45.189914197852524,,5.716530733283883,
Grenoble Europole,Apericerie,,5b576480f427de002c3ba266,45.184146999999996,,5.7180443,
Grenoble Europole,Radova,,59f86f2a75eee449f3c50ba4,45.18569,,5.716792,
Grenoble Europole,Le Jardin d'Asie,,51a48588498e38ca1226b548,45.19233,,5.720829,
Grenoble Europole,Resto Gillio,,54c14761498e50c8106104ed,45.185342,,5.720519,
Grenoble Europole,Le Lyonnais,,4ee743b3490141636c6bdfeb,45.19061677341686,,5.7246563819537934,
Grenoble Europole,Presto Comptoir,,51782fbee4b0b180ccd491ea,45.18971184912253,,5.718534346477504,
Grenoble Europole,Traiteur à la Bonne Renommée,,51ad7a237dd26a46110c8e2d,45.19133391495344,,5.722069144248962,
Grenoble Europole,Badine,,58dbf2d851666a12c538748b,45.188687,,5.705258000000001,
Grenoble Europole,Saxo,,51e6dfa1498ee81b5072b7dc,45.192396,,5.7278,
Grenoble Europole,Cafe Louis,,4de92557ae6029331902beef,45.192478,,5.727794,
Grenoble Europole,Les Badaboués,,526fa7f611d2173b82c621a9,45.196894,,5.7122,
Grenoble Europole,L'étourdi,,5393570f498e1d03a73a23d1,45.187388,,5.726116,
Grenoble Europole,Le Petit Bouche,,4e23d97d1f6effe84f8988fb,45.19072014965331,,5.722326828383754,
Grenoble Europole,Le TAM TAM,,545dddb3498edd74bae0b533,45.18629802868945,,5.718668103218079,
Grenoble Europole,Domino's Pizza,Pizza ,4c278b343703d13a0224a736,45.188545614317334,,5.718821312251066,
Grenoble Europole,Punjabi,Indian ,4ca071bf54c8a1cd11519f4b,45.19009010760235,,5.718192011117934,
Grenoble Europole,Transvaal,,513dc1eee4b0242476367192,45.1857973912061,,5.706040554502424,
Grenoble Europole,Le Petit Félix,,4c3c497f5418897c428b0803,45.19426585119059,,5.710892491733247,
Grenoble Europole,Restaurant Universitaire Minatec,,508a6ca1e4b0ca23f50b1140,45.196180907702065,,5.710300588432562,
Grenoble Europole,Le Chalet,,4e3d908552b1a04aff19d894,45.193923517817886,,5.719684660434723,
Grenoble Europole,Une Tarte Un Café,,4de4d0a718385df2b05c1a84,45.190764,,5.7251001499999985,
Grenoble Europole,Bootsy,,4e8232fcbe7bf0051d6d314d,45.18646717071533,,5.7233887910842896,
Grenoble Europole,Mezzo di pasta,,4c84ddd1d8086dcbaa7f8c52,45.189081,,5.722662000000001,
Grenoble Europole,Chalet des Dauphins,,4e4154cf2271a89dd08c26ce,45.19238,,5.717643,
Grenoble Europole,Le Saint Vincent,,516697a6e4b008969773e109,45.18851110271023,,5.7262283383096255,
Grenoble Europole,Les copains d'abord,,4fbf668fe4b05f6d36344d9f,45.18603117668378,,5.724684341278237,
Grenoble Europole,Subway,Sandwich ,58d01a15c9602779d189a380,45.1914107501089,,5.714547115667642,
Grenoble Europole,Subway,Sandwich ,4c90ceb97088a143065dab43,45.18368210277068,,5.723131495700841,
Grenoble Europole,panino sandwich,Sandwich ,514c40d8e4b009f28e0dbfaf,45.18865775225599,,5.712859054567133,
Grenoble Europole,Le Midi,Sandwich ,56d98572498e3dd517a5eb31,45.191131,,5.717032,
Grenoble Europole,le lotus d orient,Sandwich ,51b6fd7d498e7c5228424f2b,45.18758010864258,,5.723215579986572,
Grenoble Europole,Pains a la ligne,,509d1f3f3d7c56bd1382b913,45.19109040527011,,5.7144736822498965,
Grenoble Europole,Picual,Sandwich ,4e1436cc88777cd5da319793,45.191210999999996,,5.713536,
Grenoble Europole,Am S'tram Miam,Sandwich ,4c21e2e89085d13ac25f85cc,45.18950879573822,,5.720352530479431,
Grenoble Europole,Brioche Dorée,Sandwich ,4f7f42e07b0cf18ae1af0a83,45.19,,5.727265,
Grenoble Europole,Le Sphinx,Sandwich ,4e652367b993678bb7c2ac2c,45.1876922278225,,5.712539986565252,
Grenoble Europole,Elle's Kitchen,Sandwich ,5238259411d2f2f3e2827f76,45.18877,,5.7063239999999995,
Grenoble Europole,En Tout Sens,Sandwich ,4e8c39397ee6beb5b5fa5ff9,45.18873977661133,,5.708230018615723,
Grenoble Europole,Sacré Bleu,Seafood ,4ebc255af5b9f8d19b74bf2a,45.185550634199025,,5.72014203099861,
Grenoble Europole,Burger King Grenoble Victor Hugo,Burger ,58765b52f229952ac19cc75d,45.189676588102806,,5.724462273033737,
Grenoble Europole,Starbucks Coffee,Café,5a60a40b6bdee64056ea8819,45.19148,,5.7144900000000005,
Grenoble Europole,PeGast,Soup ,547ef715498e94f6f3a3b178,45.190917999999996,,5.711284,
Grenoble Europole,Epicerie Comptoir - Europole Grenoble,Wine Bar,4d652d56375aa090cf031b74,45.19086890809179,,5.712847709655763,
Grenoble Europole,Casa Miguel,Spanish ,4daf2b9c6e81e2dffdd86f69,45.189378999999995,,5.718609,
Grenoble Europole,Le Restaurant Lanka,Indian ,4c4893dd1879c9b668f1e143,45.1870845355921,,5.718683449930947,
Grenoble Europole,Yak Steakhouse,Steakhouse,5aad7803b040563b53ab98b1,45.1938,,5.724432,
Grenoble Europole,Hippopotamus,BBQ ,51cf41a0498e3b445de78b96,45.19084194397088,,5.727400867117527,
Grenoble Europole,Le Petit Savoyard,Swiss ,4f075b83e4b0ad9c2414faf2,45.186348880588646,,5.722954540350193,
Grenoble Europole,Au Bonheur Des Thes,Tea ,5c6c3cc398fbfc002c3e3625,45.189674,,5.719846700000001,
Grenoble Europole,la poule perchée,Tea ,58c538bc30ecc64ec69e327b,45.186421,,5.722621,
Grenoble Europole,Salon de Thé J.M Coste,Tea ,4e54c82581dc776fa5e16313,45.18990676301218,,5.716853124056294,
Grenoble Europole,Le goût des fleurs,Tea ,4f08721fe4b0e8907a8e64b9,45.18755418457612,,5.724457190758746,
Grenoble Europole,Chicken Bastille,Doner ,564b8537498e060ac0a12e7c,45.191621299649356,,5.720177838990864,
Grenoble Europole,Urfa 63,Doner ,5675aa3f498e19ce9cb7bee0,45.185318,,5.705739,
Grenoble Europole,Antep Sofrasi,Turkish ,57796887498e03e65852092b,45.194275,,5.725850599999999,
Saint-Étienne Châteaucreux,La Case Kréol,Caribbean ,4d485eb7dcdba14394c4efb1,45.43864600000001,0.0,4.388454,No ratings
Saint-Étienne Châteaucreux,Au Mandarin,Chinese ,50a7e8ace4b0e7faf5407dce,45.43906304966054,0.0,4.396979110396463,No ratings
Saint-Étienne Châteaucreux,Oyisi,Sushi ,4c5162a45ee81b8dde8e2300,45.439358,0.0,4.402698,No ratings
Saint-Étienne Châteaucreux,Fleur de Jade,Asian ,516c5fc9e4b012d5cea69db4,45.44222640991211,0.0,4.386500358581543,No ratings
Saint-Étienne Châteaucreux,Chez Mao,Chinese ,4efe0c700e618ea764f9405c,45.43745787360261,2.0,4.389106224159368,No ratings
Saint-Étienne Châteaucreux,Le Bambou D'asie,Chinese ,59fcd79f95d986639dee5bc3,45.441272,0.0,4.38609,No ratings
Saint-Étienne Châteaucreux,Cité Interdite,Chinese ,500a9584e4b098bae2969fc8,45.44059919694562,0.0,4.3862807750701895,No ratings
Saint-Étienne Châteaucreux,Mange Des Sushi Avec Pauline,Sushi ,4fb29386e4b0aed64c8864b8,45.436762,0.0,4.391638,No ratings
Saint-Étienne Châteaucreux,Lê Laï,Asian ,4ea30631775b5c3e83666af7,45.44303957435017,0.0,4.384811124773819,No ratings
Saint-Étienne Châteaucreux,Paul,Bakery,4ff68f54e4b048eef77f7425,45.443237,1.0,4.399506,6.4
Saint-Étienne Châteaucreux,Oblé doré,Bakery,4c286be79eb195211b822959,45.43983206,0.0,4.3983227,No ratings
Saint-Étienne Châteaucreux,Clic & Croc,Bakery,4f462e19e4b05a78afdf20f1,45.43977693763887,0.0,4.397157978615606,No ratings
Saint-Étienne Châteaucreux,Au Gruau Lorrain,Bakery,4efef6527ee5f14f39555041,45.43641320726001,2.0,4.389834479208253,No ratings
Saint-Étienne Châteaucreux,Paul,Bakery,513dc10ce4b099476933e6a4,45.441489052734525,1.0,4.385730353900987,6.5
Saint-Étienne Châteaucreux,Paul,Bakery,4c457917da2176b01c2b637a,45.436806,1.0,4.388944,6.4
Saint-Étienne Châteaucreux,My-boulangerie.com,Bakery,50cad1ffe4b0c76961ed16f3,45.4369507164447,0.0,4.386867112481704,No ratings
Saint-Étienne Châteaucreux,La Gerbe d'Or,Bakery,52c148e2498e8d01d142fe00,45.43692234437935,0.0,4.387006520524424,No ratings
Saint-Étienne Châteaucreux,La Mie Câline,Bakery,4e89985029c2cf7ec8222b73,45.43859874254051,2.0,4.388029327711837,No ratings
Saint-Étienne Châteaucreux,Boulangerie Pupier,Bakery,5253e186498e1ed6a6ff9256,45.447837,1.0,4.387544,No ratings
Saint-Étienne Châteaucreux,RS Store,Bakery,5780a696498eb82e0b2e54c6,45.437524,0.0,4.390383,No ratings
Saint-Étienne Châteaucreux,Le point du jour,Bakery,5167dc2f498e4e3a5bed48e8,45.44004926240098,1.0,4.3871269401042445,No ratings
Saint-Étienne Châteaucreux,La Mie Câline,Bakery,5162c846e4b00e962e03d85b,45.43691467890535,0.0,4.386860789964331,No ratings
Saint-Étienne Châteaucreux,Brioche Dorée,Bakery,4c8b83df1797236a1f7f6b88,45.43878138928925,0.0,4.3921549257103685,6.4
Saint-Étienne Châteaucreux,Regal Food,Belgian ,54351ae5498ec219f3400e69,45.44987788434492,1.0,4.403076928490127,No ratings
Saint-Étienne Châteaucreux,La Tartine,Bistro,57680398cd101651d2774b37,45.43966500000001,0.0,4.397784,No ratings
Saint-Étienne Châteaucreux,Bistro Gourmand,French ,58e94f2193eaf8462ef85656,45.436478,0.0,4.387388,No ratings
Saint-Étienne Châteaucreux,La Table du 10,Bistro,53f70ef4498e78515ea1f5a7,45.436670037415574,0.0,4.386832974186124,No ratings
Saint-Étienne Châteaucreux,Le Square,Breakfast Spot,4e6b84c81495acb0c738c51a,45.43747252636351,0.0,4.390310366420982,No ratings
Saint-Étienne Châteaucreux,Dans Ma Cuisine,Breakfast Spot,4f8513d7e4b090c48a927d93,45.43627714449381,0.0,4.391521997136832,No ratings
Saint-Étienne Châteaucreux,McDonald's,Burger ,566ec90d498eadbfb950285b,45.44273376464844,0.0,4.3998332023620605,No ratings
Saint-Étienne Châteaucreux,Génération Crousty,Burger ,53947a7e498e1437ff622f4c,45.44424438476562,0.0,4.38715410232544,No ratings
Saint-Étienne Châteaucreux,Méliès Café,Tapas ,4b4dc078f964a520d2d626e3,45.441655750565616,3.0,4.386828156220548,No ratings
Saint-Étienne Châteaucreux,Nota Bene,Café,4bbb792be6e7b713841af879,45.441632,16.0,4.387315,6.9
Saint-Étienne Châteaucreux,ShiftSpace,Café,58c9633a9b7eac654d664a90,45.450498,0.0,4.387087,No ratings
Saint-Étienne Châteaucreux,phenix de carthage,Café,53c311e8498ecd1b580803c5,45.43858400000001,0.0,4.386138,No ratings
Saint-Étienne Châteaucreux,Le Purple,Café,4cfa59c60df3236a8d3af3a9,45.439744026912976,1.0,4.388148034923867,No ratings
Saint-Étienne Châteaucreux,Le Petit Café,Café,4e005110fa764068a368fee9,45.44932325021867,0.0,4.392142170407241,No ratings
Saint-Étienne Châteaucreux,La Case Kréol,Caribbean ,4d485eb7dcdba14394c4efb1,45.43864600000001,0.0,4.388454,No ratings
Saint-Étienne Châteaucreux,Mary's Coffee Shop,Coffee ,566ebe73498e6c1028467554,45.439642427381685,2.0,4.389688469945484,No ratings
Saint-Étienne Châteaucreux,11th Avenue,Salad ,4c728ea09e706dcbd9104b62,45.44200902960858,1.0,4.3861370426750295,No ratings
Saint-Étienne Châteaucreux,La Potiniere,Coffee ,518a683f498e6545c02cf30b,45.441656,0.0,4.385434,No ratings
Saint-Étienne Châteaucreux,Le Jump Cafe,Coffee ,507e4bbee4b07e1899fbc864,45.441532728699634,0.0,4.415406665539284,No ratings
Saint-Étienne Châteaucreux,33 Tours & Café Crème,Coffee ,4feede85e4b0ff692ba7b6c2,45.437554,6.0,4.390229,No ratings
Saint-Étienne Châteaucreux,Coco’s Coffee Shop,Coffee ,5b9b72a827cbd1002564799b,45.44323,1.0,4.386044999999998,No ratings
Saint-Étienne Châteaucreux,Traiteur Florent Garrat,Deli / Bodega,585d5b06d8b0ed6559f0e2a1,45.437825,0.0,4.38901,No ratings
Saint-Étienne Châteaucreux,Central Parc 2,Ice Cream ,51c45e5f498edf95201f0aae,45.439322,2.0,4.388766,No ratings
Saint-Étienne Châteaucreux,La Gerbe d'Or,Bakery,52c148e2498e8d01d142fe00,45.43692234437935,0.0,4.387006520524424,No ratings
Saint-Étienne Châteaucreux,Le coup de soleil,,4f7ed980e4b06aeda2fd0b5c,45.45021211321321,0.0,4.40384778297942,No ratings
Saint-Étienne Châteaucreux,Le Hype Bar Restaurant,,50ca6d57e4b05a8a0a0fa339,45.436448,1.0,4.390094,No ratings
Saint-Étienne Châteaucreux,LE Corail,Falafel ,5768669e498e2b2c6879afb5,45.442653,,4.39737,No ratings
Saint-Étienne Châteaucreux,Paradisio,Falafel ,50be4f47e4b01f8e8f9f94e4,45.43955847219299,,4.3844329596609,No ratings
Saint-Étienne Châteaucreux,McDonald's Originals,Fast Food ,5671da13498e0b66bfd121d1,45.443166281749896,,4.400219709460608,No ratings
Saint-Étienne Châteaucreux,Quick,Fast Food ,4c4ebf099932e21e7ea03bce,45.44851595763711,,4.393460374252558,No ratings
Saint-Étienne Châteaucreux,Subway,Sandwich ,4c0f6d4398102d7fd429e506,45.43789479474544,,4.389048318402728,5.5
Saint-Étienne Châteaucreux,Kiosque Envy'Crousty,Fast Food ,4faab22de4b0f8dd98753f93,45.441040453334026,,4.386739871091016,No ratings
Saint-Étienne Châteaucreux,Le 622,Fast Food ,4fb37e39e4b0ddd7513eed9e,45.43946313980351,,4.389440133312819,No ratings
Saint-Étienne Châteaucreux,Central Parc Café,Fast Food ,4e7b0c7b775b9c9b502547c2,45.438013314332636,,4.3891990184783936,No ratings
Saint-Étienne Châteaucreux,L'Oasis,Food,4df39cc5a809141629a3135f,45.44129710234707,,4.386882855302089,No ratings
Saint-Étienne Châteaucreux,Taverne Maitre Kanter,French ,4b583cd9f964a520134f28e3,45.442840740604964,,4.399061554194045,6.3
Saint-Étienne Châteaucreux,Les Poteaux Carrés,French ,55b759ff498ed691906fc48f,45.442543029785156,,4.398719310760498,No ratings
Saint-Étienne Châteaucreux,La Loco,French ,56fd6fda498e79de0597dcb8,45.44242,,4.398746,No ratings
Saint-Étienne Châteaucreux,TVB,French ,4c2c778fd1a10f479174f964,45.44053512623375,,4.401408143454024,No ratings
Saint-Étienne Châteaucreux,Zoobar,French ,4e68a3302271685ed9842952,45.43841984465706,,4.3928291917471025,No ratings
Saint-Étienne Châteaucreux,Les Poteaux Carres,French ,4e13569422713f7d7be1e6ee,45.4417182127923,,4.385978496944647,6.8
Saint-Étienne Châteaucreux,L'imprevu,French ,4c2dc188e116e21e590f8f60,45.43903207988452,,4.397451930896238,No ratings
Saint-Étienne Châteaucreux,Chez Colette,French ,57482f6e498e07ee416c4849,45.441633,,4.386892,No ratings
Saint-Étienne Châteaucreux,le verre galant,French ,50c0931be4b088a330908079,45.43772754854272,,4.390744916761278,No ratings
Saint-Étienne Châteaucreux,Insens Restaurant,French ,4c402aa25faf76b0c0194820,45.441080866699906,,4.388327680524402,No ratings
Saint-Étienne Châteaucreux,Bistrot de Paris,French ,4bf593e7bfeac92874c19236,45.440951287827815,,4.385822442213724,6.8
Saint-Étienne Châteaucreux,Regency,French ,4d074de7e350b60ccab09142,45.44820198494778,,4.388778014267071,No ratings
Saint-Étienne Châteaucreux,Bistro Gourmand,French ,58e94f2193eaf8462ef85656,45.436478,,4.387388,No ratings
Saint-Étienne Châteaucreux,Le Petit Breton,Breton ,584949a0ec980f64de7b27dc,45.44416,,4.3858805,No ratings
Saint-Étienne Châteaucreux,Corne D'Aurochs,French ,4bf50bbbff90c9b65ae05528,45.440373955081355,,4.390427298912825,No ratings
Saint-Étienne Châteaucreux,L'Aromatic,French ,5377b88611d27c9e62d1fdcf,45.438312,,4.3904510000000005,No ratings
Saint-Étienne Châteaucreux,Cuiz'in sur cours,French ,5131fd6fe4b0cfae4da3c24d,45.43424987792969,,4.391453266143799,No ratings
Saint-Étienne Châteaucreux,L'Avenir,French ,4c5a9a44d3aee21eba016b55,45.439639,,4.401321,No ratings
Saint-Étienne Châteaucreux,La Terrasse des Cadets,French ,511d398ce4b09e1ab1b16853,45.434144684599104,,4.39134990433073,No ratings
Saint-Étienne Châteaucreux,Le Repas Breton,French ,4ef04615754a1ea2598d9225,45.44411460273044,,4.385862350463866,No ratings
Saint-Étienne Châteaucreux,La Verrière,French ,4d8889344757721e73ef8e69,45.4397846,,4.3897843,No ratings
Saint-Étienne Châteaucreux,Le Cantine Stephanoise,French ,4feaf56be4b09ce4ab353fe5,45.44039535522461,,4.388594150543213,No ratings
Saint-Étienne Châteaucreux,Brasserie le Gavroche,French ,4fa26412e4b060d2c55b7f3d,45.44253077957744,,4.398062098406768,No ratings
Saint-Étienne Châteaucreux,Le Panier à Salade,French ,4ef097492c5b9617da8e7016,45.443155,,4.3848910000000005,No ratings
Saint-Étienne Châteaucreux,L'Estaminet,French ,5075508ae4b01d78865465b6,45.439845484312066,,4.395913056301542,No ratings
Saint-Étienne Châteaucreux,restau marché,French ,4f9c2b40e4b02343c84958e2,45.45055708527447,,4.394159370489851,No ratings
Saint-Étienne Châteaucreux,Le Richelieu,French ,4ea7ded2dab48494d897f571,45.439693,,4.403112,No ratings
Saint-Étienne Châteaucreux,Carte Blanche,French ,508c3b54e4b06f6d194d5b20,45.44108196810624,,4.388178929546782,No ratings
Saint-Étienne Châteaucreux,Gambrinus,French ,4cc024bb7dc9a093b4ae3cf5,45.4405916690751,,4.38579797744751,No ratings
Saint-Étienne Châteaucreux,La Java Bleue,French ,51223c9ae4b027b3b19154ac,45.431724548339844,,4.395388126373291,No ratings
Saint-Étienne Châteaucreux,Club Pelican,Gastropub,4de521ff1f6e3190cd4f3bec,45.440901801567534,,4.400505615444544,No ratings
Saint-Étienne Châteaucreux,Restaurant La Loco,Gastropub,56fd70e6498e389de09a0930,45.442142,,4.398708,No ratings
Saint-Étienne Châteaucreux,Nota Burger,Gastropub,5ca0cca79e3b65002ca03671,45.44152,,4.38734,No ratings
Saint-Étienne Châteaucreux,Le Maharadja,Indian ,5c4f571086f4cc0039f34c1e,45.442793,,4.384799,No ratings
Saint-Étienne Châteaucreux,Tandoori Palace,Indian ,55393efc498e9eecfcfe5d51,45.44357681274414,,4.384928226470946,No ratings
Saint-Étienne Châteaucreux,Capriccio,Italian ,4ec6449a02d5888e9a602552,45.44281125840517,,4.397714869357478,No ratings
Saint-Étienne Châteaucreux,L'Italien,Italian ,4f5a5709e4b0db6b5b7a09fd,45.441096,,4.387118,No ratings
Saint-Étienne Châteaucreux,Mezzo Di Pasta,Italian ,4ea2a0160aaf711180ad3b87,45.44153121456726,,4.386912742883784,No ratings
Saint-Étienne Châteaucreux,Kebab house,Kebab ,4f904677e4b05b1cb7634e86,45.4413372540891,,4.385697103043504,No ratings
Saint-Étienne Châteaucreux,restaurant anatolie,Kebab ,53307479498e0871f6f0964f,45.43307,,4.401665,No ratings
Saint-Étienne Châteaucreux,Pachamama,Argentinian ,4c29daf597d00f470ff941ea,45.434239,,4.391349,No ratings
Saint-Étienne Châteaucreux,O'tacos,Taco ,5c153aad968f310036214579,45.43893,,4.3981967000000015,No ratings
Saint-Étienne Châteaucreux,Restaurant Cyrus,Middle Eastern ,509e47dbe4b0912bf2c1d6b2,45.436464,,4.388786,No ratings
Saint-Étienne Châteaucreux,Le Kasseria,Middle Eastern ,4e33195ec65bdb4c79f98013,45.43237379497469,,4.393957326747559,No ratings
Saint-Étienne Châteaucreux,La Grotte,Pizza ,4b978625f964a520370735e3,45.441800513679816,,4.403800698122109,6.8
Saint-Étienne Châteaucreux,Pizza yellow,Pizza ,4c160a3382a3c9b60d9ffff8,45.44036896454739,,4.398065402050162,No ratings
Saint-Étienne Châteaucreux,Napoli,Pizza ,4e0a1ce02271dfa46bc17977,45.437976,,4.391183,No ratings
Saint-Étienne Châteaucreux,Domino's Pizza,Pizza ,56bc5517498e99415cb0d19a,45.439107,,4.397843,No ratings
Saint-Étienne Châteaucreux,Kyriad Saint Etienne Centre,Hotel,4bc8dd94762beee17a9e3d38,45.4417,,4.4058305556,6.2
Saint-Étienne Châteaucreux,Subway,Sandwich ,4c0f6d4398102d7fd429e506,45.43789479474544,,4.389048318402728,5.5
Saint-Étienne Châteaucreux,La Pause Gourmande,,4fe9c662e4b0e88e20db2da4,45.43774795532226,,4.3886938095092765,No ratings
Saint-Étienne Châteaucreux,Restaurant Iskender,,524dba4a11d2b589b64a4491,45.442785,,4.386175,No ratings
Saint-Étienne Châteaucreux,Le Glasgow,,4f48c343e4b0d125f6902710,45.439282064666564,,4.387548602207842,No ratings
Saint-Étienne Châteaucreux,"Il ""lo"" Caffè",,57209623498e841b84d93812,45.43922,,4.384704,No ratings
Saint-Étienne Châteaucreux,Nota Bene,Café,4bbb792be6e7b713841af879,45.441632,,4.387315,6.9
Saint-Étienne Châteaucreux,Impala Lounge,,4c10d5085a43d13a83d0174b,45.439228,,4.397414,No ratings
Saint-Étienne Châteaucreux,Le baroque,,4dbe8931cda109aa6ccb80ad,45.439997,,4.3982790000000005,No ratings
Saint-Étienne Châteaucreux,La Piadina,,4f632882e4b045ea9195cb4f,45.43980300000001,,4.397992,No ratings
Saint-Étienne Châteaucreux,Trader's,,4be946e3aecb76b043c55a80,45.439446,,4.397519,No ratings
Saint-Étienne Châteaucreux,L'Agapée,,4f6330b8e4b045fbd2816587,45.43887286708626,,4.386699953731243,No ratings
Saint-Étienne Châteaucreux,Dans Ma Cuisine,,4fb34395e4b083029d770767,45.43952,,4.385256,No ratings
Saint-Étienne Châteaucreux,L'Européen,,4fd1db48e4b0b89594d3ac15,45.4506304907439,,4.394766596380629,No ratings
Saint-Étienne Châteaucreux,Le Flore,,4f170c5d108119d30e4cf31c,45.44911257557281,,4.392900466918944,No ratings
Saint-Étienne Châteaucreux,L'articho,,4e96cb1230f8fb103d3e11df,45.439918,,4.398244999999998,No ratings
Saint-Étienne Châteaucreux,L'Artichaut,,4eb7d806e5fa17fc87c61d01,45.44597485064615,,4.386095018027069,No ratings
Saint-Étienne Châteaucreux,Les Potes Iront,,4f7c9bcee4b0023304b4ef16,45.436482878488995,,4.3872984842819465,No ratings
Saint-Étienne Châteaucreux,La Bouche Pleine,,50787d7ee4b0eb8b831c868d,45.434891,,4.392232,No ratings
Saint-Étienne Châteaucreux,L'entresol,,51e67afb498edaa34128883c,45.439595,,4.397991,No ratings
Saint-Étienne Châteaucreux,Le sympa,Salad ,53c8f1d8498ecb5ba34d050e,45.43787162022925,,4.389390901375156,No ratings
Saint-Étienne Châteaucreux,Interdiction De Tourner A Gauche,Salad ,4fb440cbe4b0bc649c30677a,45.434643,,4.3942830000000015,No ratings
Saint-Étienne Châteaucreux,11th Avenue,Salad ,4c728ea09e706dcbd9104b62,45.44200902960858,,4.3861370426750295,No ratings
Saint-Étienne Châteaucreux,Subway,Sandwich ,4c0f6d4398102d7fd429e506,45.43789479474544,,4.389048318402728,5.5
Saint-Étienne Châteaucreux,Le Cheese,Sandwich ,4c6841c831ba2d7f2e42f772,45.436544,,4.3892190000000015,No ratings
Saint-Étienne Châteaucreux,La Gerbe d'Or,Bakery,52c148e2498e8d01d142fe00,45.43692234437935,,4.387006520524424,No ratings
Saint-Étienne Châteaucreux,Paradisia,Sandwich ,52d5a66311d26e37b72cd770,45.440030839895115,,4.38779354095459,No ratings
Saint-Étienne Châteaucreux,Brioche Dorée,Bakery,4c8b83df1797236a1f7f6b88,45.43878138928925,,4.3921549257103685,6.4
Saint-Étienne Châteaucreux,Le mal assis,Snack ,4daeb7634b229076786c1cb8,45.43868887829837,,4.394688889698466,No ratings
Saint-Étienne Châteaucreux,Ganakao,Snack ,4d7769409ee9a35dece3b1f8,45.4387295,,4.39453257,No ratings
Saint-Étienne Châteaucreux,Le Richelieu,French ,4ea7ded2dab48494d897f571,45.439693,,4.403112,No ratings
Saint-Étienne Châteaucreux,Brioche Dorée,Bakery,4c8b83df1797236a1f7f6b88,45.43878138928925,,4.3921549257103685,6.4
Saint-Étienne Châteaucreux,Méliès Café,Tapas ,4b4dc078f964a520d2d626e3,45.441655750565616,,4.386828156220548,No ratings
Saint-Étienne Châteaucreux,Poivre Rouge,Steakhouse,5068226ce4b0846a5af3820a,45.448381,,4.393867,No ratings
Saint-Étienne Châteaucreux,Chez les Fondus,Steakhouse,4c8be98855fba09311a55aab,45.437234243680614,,4.3870697923117525,No ratings
Saint-Étienne Châteaucreux,Little Rock Saloon,Steakhouse,4df0af1a1838e429ae510dea,45.437185829716135,,4.3904765954286935,No ratings
Saint-Étienne Châteaucreux,Rive Gauche,Tea ,52f7cdb7498ed300d4e26093,45.441725953184054,,4.3863983053628965,No ratings
Saint-Étienne Châteaucreux,La Grotta,Doner ,5c2fe098340a58002c7ba30c,45.43776,,4.390046599999999,No ratings
Saint-Étienne Châteaucreux,Aux Terrasses De Dorian,Wings ,4f85b526e4b06b49f50d745e,45.43835115922482,,4.388851619591192,No ratings
Mériadeck,Shisha,Afghan ,51c4c8be498e6e1b11e9b61b,44.837883000000005,0.0,-0.570131,
Mériadeck,La Djaf,African ,5b5b6187c824ae002cb43794,44.844446000000005,0.0,-0.580986,
Mériadeck,Saveur Du Senegal,African ,4bd1f68aa8b3a59389d0665f,44.837839007377625,0.0,-0.5691862106323242,
Mériadeck,Adey Abbeba,African ,54ece2bc498e9a7e47e1b462,44.831443786621094,1.0,-0.5746200084686279,
Mériadeck,Abyssinia,Ethiopian ,4eaaf3b34690ef1f6c167f53,44.837628272635854,1.0,-0.5769368214535533,
Mériadeck,La p'tite Afrik,African ,52fbc97a11d2254baca9542d,44.8364496231079,1.0,-0.5698795318603521,
Mériadeck,Juj's house,African ,540a2e9e498e32e774c5c1e5,44.84646224975586,0.0,-0.5936236977577211,
Mériadeck,Folk Kitchen,American ,5aeaf3b512f0a9002c6d6a4c,44.83533,2.0,-0.5835783,
Mériadeck,Woof St-Rémi,New American ,59d93d0f002f4c7039cddabb,44.841089000000004,0.0,-0.573701,
Mériadeck,Café Gourmand,American ,4b4cb5bdf964a52044bb26e3,44.843204212590074,32.0,-0.5780946060252985,
Mériadeck,Kelly's,American ,4f44e927e4b00215c61f91e1,44.8361863681595,3.0,-0.5714703030018754,
Mériadeck,5th Avenue,Bar,4c34e11a7cc0c9b66f18f49a,44.842335705958654,10.0,-0.5787204578645938,
Mériadeck,SushiShop,Sushi ,4b979247f964a520570935e3,44.83968643471039,12.0,-0.5813578602449406,
Mériadeck,Padang Padang,Asian ,539efcaf498e709d5f0c0d3b,44.8373731981176,20.0,-0.570985870282424,
Mériadeck,Chef’s Concert,Chinese ,5a90651c237dee0f7c8f3540,44.836744,1.0,-0.579923,
Mériadeck,Phénix d’Or,Vietnamese ,4da748aa4b22cb9c5c2076a5,44.83676,5.0,-0.57998,
Mériadeck,Gyoza Factory,Asian ,5696422c498e9a30b5c491c3,44.840467,1.0,-0.5815279999999999,
Mériadeck,noorn akorn,Asian ,4cdb1914d5495481ef013ab2,44.838785919301664,1.0,-0.5820713690401137,
Mériadeck,Sala Thai,Thai ,4c31bee6a0ced13abd07146e,44.841196000000004,4.0,-0.582573,
Mériadeck,Bol de Riz,Asian ,4b56f6a2f964a520e22028e3,44.84707695772702,2.0,-0.5802735089919197,
Mériadeck,Thai Express,Thai ,4db550cf4b226b343d9cec20,44.83478394587025,2.0,-0.573309299111043,
Mériadeck,Matsuri,Japanese ,563132c6498e93f18c75d3c2,44.839979,4.0,-0.574963,
Mériadeck,Planet Sushi,Sushi ,5400b760498e2682719d531c,44.842064,10.0,-0.5798180000000001,
Mériadeck,Influence Wok,Asian ,4be94cf688ed2d7f50c6cc1d,44.84233534537746,5.0,-0.5760113855268884,
Mériadeck,Cotesushi,Sushi ,5b3f38534f0e58002cb8d565,44.837069,2.0,-0.571617,
Mériadeck,Maè Tû,Vietnamese ,5d401defe74b350008c16610,44.839923,0.0,-0.5768439999999999,
Mériadeck,Salathai,Thai ,5081bc84e4b06d3819e0aa00,44.841519752878895,1.0,-0.5806062687543431,
Mériadeck,Dan Cuisine D'influence,Chinese ,52f61f9a498e6b97f4ff57e6,44.839490188900356,3.0,-0.5709455090595839,
Mériadeck,Wok to Walk,Chinese ,5c2f3dcc3ba767002ccfdd1e,44.841151,0.0,-0.573628,
Mériadeck,Quê Tôi,Vietnamese ,55d4c7e3498e5d132ac5892e,44.83777341050585,3.0,-0.5704906878494405,
Mériadeck,Bibimbap,Korean ,594c0c8fd1a40209d0d09172,44.838924,0.0,-0.5718979999999999,
Mériadeck,Kin No Yama,Japanese ,56910e59498e575c5d3a64d4,44.83616651262483,1.0,-0.5775052401950409,
Mériadeck,Konnichiwa,Japanese ,4d1c85b0763fb1f7cc5a8b66,44.84002670719653,3.0,-0.5822007811140418,
Mériadeck,Taiwan Connection / Bistrot Taïwanais,Thai ,59e1eb5ed8096e331d82ca12,44.839513000000004,2.0,-0.579272,
Mériadeck,Oshi Sushi,Sushi ,5bafbbc959c423002c25d92c,44.837265,0.0,-0.57655025,
Mériadeck,Dragon Doré,Thai ,514b5423e4b0456df6a8262b,44.834679,4.0,-0.575321,
Mériadeck,Ramen Ya,Asian ,4c5a9c4167ac0f471a06074c,44.84123175005683,2.0,-0.5740393981129682,
Mériadeck,Asiana,Asian ,4cf4e0e3cc61a35def99279e,44.838667915722056,0.0,-0.5753055508475347,
Mériadeck,Chez Kimmie Fondue,Chinese ,57cc5d71498ec742e2ba1637,44.834009,0.0,-0.575653,
Mériadeck,Restaurant Shogun,Japanese ,500bc75345b0bf4f4cc7bad1,44.836395454104796,2.0,-0.5857086181640625,
Mériadeck,Yako,Japanese ,4ba0bfb3f964a520fc7a37e3,44.844452169797904,5.0,-0.5797836177241739,
Mériadeck,Les frères z,Chinese ,5762f706498edaf265d338a7,44.848971,0.0,-0.583204,
Mériadeck,Santosha Bordeaux,Asian ,4b7d0527f964a52031ac2fe3,44.8371,120.0,-0.571616,
Mériadeck,Le Shambhala,Tibetan ,5bd5d31d12c8f0002b4c67d0,44.8385,2.0,-0.568543,
Mériadeck,Wok Way,Chinese ,506db957ebcab3cd9c7d2381,44.8346,4.0,-0.575246,
Mériadeck,Bibibap,Korean ,5931286d4b78c519c0bc952c,44.83894524047264,15.0,-0.5719099938869476,
Mériadeck,CHEZ HAYASHI,Asian ,5724c1be498e94e2f177c4ac,44.83854324524615,0.0,-0.571895347907176,
Mériadeck,Maruya Dinning Japanese,Japanese ,52eb8b7c498e2dabeb245694,44.842673,11.0,-0.57831,
Mériadeck,Konnochiwa,Japanese ,564b2117498e50e94615971b,44.83644382011117,0.0,-0.585889201597568,
Mériadeck,Sushi Express 33,Japanese ,4fb67e0ce4b0c4871bbd0a80,44.83646958694954,,-0.5752870665769565,
Mériadeck,Bambous Verts,Asian ,4d6259fbd7206ea846010af2,44.846022999999995,,-0.580271,
Mériadeck,Chinois à Emporter,Chinese ,56b2444a498e1e3e5a9973d7,44.834744,,-0.5733699999999999,
Mériadeck,Mei Shi Cheng,Chinese ,4eac4e8d29c2152dec1f2753,44.83849202292581,,-0.5742969792477828,
Mériadeck,Yamato Box,Japanese ,4bf12617f45ec928d37a943c,44.83495368702402,,-0.5752639612507775,
Mériadeck,LE PANIER D'OR,Chinese ,50ba5a37e4b0cdd4bbd16da7,44.835996552136955,,-0.5740440190352832,
Mériadeck,Traiteur asiatique,Asian ,4b7e7874f964a52069ee2fe3,44.838311,,-0.572503,
Mériadeck,Tam Tam Saigon,Vietnamese ,4cfbbbfbee9cb60cc9b791ad,44.84640097865464,,-0.5879692882273783,
Mériadeck,Turntable Coffee,Vietnamese ,578147b0498eb36d83f22c9c,44.836665999999994,,-0.5726929000000001,
Mériadeck,Bouche B,Dim Sum ,4c10d53281e976b02bb10feb,44.844895004317515,,-0.5798510279655941,
Mériadeck,Matsuri Bordeaux,Hotel,574888e9498e099593dbbec1,44.839627,,-0.574607,
Mériadeck,Café Japonais,Japanese ,4bf2d6ee98ac0f47ae3362a8,44.83901554109416,,-0.5731375721354719,
Mériadeck,L'Agneau à la Braise,BBQ ,4d72b45ff7c38cfadfb9ab3d,44.83970159199089,,-0.5721629597246647,
Mériadeck,The Meat Pack BBQ,BBQ ,59b3c8d223a2e6344a1e1055,44.839584,,-0.56933975,
Mériadeck,Bagel Corner,Bagel ,5e453dd5b0617000074b1e9c,44.837699,,-0.585202,
Mériadeck,Bagelstein,Bagel ,553a2779498e3d6a1341287e,44.84042397,,-0.58141749,
Mériadeck,Bagels Kook,Bagel ,5423fac1498e0eae829893ba,44.837186082981816,,-0.5737529019748654,
Mériadeck,Le Catering 2,Donut ,5311bdf5498e16e6b86fc78d,44.840297570348156,,-0.5796042543595584,
Mériadeck,Bagel Corner,Bagel ,59b95c5dd69ed007035f5389,44.836657,,-0.5735020000000001,
Mériadeck,Brooklyn Bagel Shop,Bagel ,5698d9fe498ec6781015cf0a,44.83627,,-0.5725399999999999,
Mériadeck,Catering,Bagel ,506f3dd0e4b0ec91da5efa96,44.836957,,-0.572315,
Mériadeck,bagel bordelais,Bagel ,4f69c8f7e4b0b8c0ec1d31f1,44.84000004868805,,-0.5811516310312641,
Mériadeck,Paul C. C. Meriadéck,Bakery,4bc49ee3b492d13af247aa60,44.8390006,,-0.583304,
Mériadeck,Saines Saveurs,Bakery,5e6a7ead8d11d00007946f67,44.836389000000004,,-0.581641,
Mériadeck,Pain Maître,Bakery,54ae7250498e1ff0d1c72ec0,44.83821868896485,,-0.5855821967124939,
Mériadeck,Boulangerie de l'Hôtel de Ville,Bakery,4ee242bf2c5b955ef09f27db,44.838406,,-0.578479,
Mériadeck,Dunes Blanches,Bakery,57ab6024498e20d6437eb934,44.8414127329236,,-0.5794684953728715,
Mériadeck,Brioche Dorée,Sandwich ,4f7f42e17b0cf18ae1af0b0b,44.83877484577889,,-0.583712160326036,
Mériadeck,Le 48,Bakery,4dc550be52b1e8f9f7d01232,44.836438,,-0.581543,
Mériadeck,Maison Pillet,Bakery,58834bfcaf7d1717ff7c05de,44.840292,,-0.5835319999999999,
Mériadeck,patisserie sabouret,Bakery,55560115498eb6f5252e7c5c,44.843418,,-0.57685,
Mériadeck,Maison Lamour,Bakery,588a429652e32d3410da6d7e,44.840953000000006,,-0.590395,
Mériadeck,Baillardean Canelés Et Macarons,Bakery,5dde850baf03f30008f05273,44.842995,,-0.5778021,
Mériadeck,Atelier Landry,Bakery,5c3dd017237dee002cb6cffd,44.840042,,-0.583342,
Mériadeck,Boulangerie Louis Lamour,Bakery,5c54092a7b385f0038fb241b,44.837117,,-0.572793,
Mériadeck,Pâtisserie boulangerie Guillaume,Bakery,52bad8f6498ee6a3ef7c3bc0,44.838972601948754,,-0.5691923454154242,
Mériadeck,Patisserie S,Dessert ,5a670270d4cc9805fbf2b3ff,44.83787,,-0.568394,
Mériadeck,L'Epi Gaulois,Bakery,4f4a4f30e4b07165fb15d772,44.840541267625774,,-0.5816461608942831,
Mériadeck,Patisserie Pierre Mathieu,Bakery,5b3ceaa604d1ae002c8e37f6,44.83824,,-0.5779449999999999,
Mériadeck,Les Pains d'Alfredo,Bakery,4c0f2f6c336220a1457acd77,44.836414020245535,,-0.575618277992924,
Mériadeck,Maison Zürcher,Bakery,59bc04a7805e3f5982be5ccd,44.843099,,-0.586429,
Mériadeck,Baillardean Canelés et Macarons,Bakery,52c2ad7c498e78ffb273a24d,44.841719,,-0.57865,
Mériadeck,Le Pétrin Moissagais,Bakery,4dfc62ad1f6e05048d85c7f1,44.832773100000004,,-0.5935723744014914,
Mériadeck,La Mie Caline,Bakery,4d7ca534cf3f37041ed25440,44.83760856339513,,-0.5736478100532725,
Mériadeck,Le Blé En Herbe,Bakery,56950bc0498eaa3e25a190d9,44.840741985950956,,-0.5888660701127145,
Mériadeck,Gllm-Guillaume,Bakery,5c9744af9be522002c790f67,44.841787,,-0.581276,
Mériadeck,Jean-Christophe Perrin,Bakery,4bd02c14caff95214a4ecef0,44.847181760933225,,-0.5819891002338033,
Mériadeck,Opéra (Boulangerie - Pâtisserie - Chocolaterie - Traiteur),Bakery,5918338bda5e560914bfe119,44.830495,,-0.573439,
Mériadeck,Paul,Bakery,4c9df86c7c096dcb1f07d0d1,44.8405125,,-0.5743828000000001,
Mériadeck,Maison Hermelin,Bakery,5d833e656d039000085b6631,44.83143,,-0.5779569999999999,
Mériadeck,Le pain d'Emmeline,Bakery,4bc6288ebf29c9b6645bf92a,44.836911,,-0.5813457448263972,
Mériadeck,Boulangerie Huillier,Bakery,4ef9d69193ad7cf2ec7b3b95,44.846407658684605,,-0.5879091953158626,
Mériadeck,La Fabrique,Bakery,4d5a32af1d4a8cfad16495ed,44.838677560054634,,-0.572019586247734,
Mériadeck,D'Accord! Coffee Lounge,Tea ,50d8136929a60e2b0d48b708,44.8393701304869,,-0.582650899887085,
Mériadeck,Le Fournil D'Espelette,Bakery,50fffb66e4b09cb49adc96d6,44.841390999999994,,-0.5987640000000001,
Mériadeck,le 48,Bakery,4ce8e765595cb1f75ad7cb14,44.831947,,-0.596197,
Mériadeck,le blé en herbe,Bakery,54101f76498e02014a085c8a,44.83930924846238,,-0.5820575034856503,
Mériadeck,Boulangerie Patisserie Leynaud,Bakery,4bc579f741cb76b0c36c3e6f,44.835654999999996,,-0.578196,
Mériadeck,la brioche doré,Bakery,527ca88211d2d465a3e4c7fa,44.83914184570313,,-0.5741943717002869,
Mériadeck,Le Fournil De Nina,Bakery,4ebe4827b803bca7dd8c6aed,44.83362099949425,,-0.5856488430158817,
Mériadeck,Au Plaisir du Palais,Bakery,4b602288f964a520e4d629e3,44.84548836655697,,-0.5784433798936988,
Mériadeck,La Fabrique Pains et Bricoles,Bakery,4d00ef809f1659419fd88fc0,44.83859467358058,,-0.5719193048511378,
Mériadeck,La Mie Caline,Bakery,4c2eed047cc0c9b66cf0ea9a,44.84065437188323,,-0.5796291137821195,
Mériadeck,Bistrot l‘Hutrement,Bistro,5b9c2077b6eedb002c1fa31f,44.839969,,-0.5838300000000001,
Mériadeck,Le Quatrième Mur,Bistro,56029350498e5f3e48ae67e7,44.84291009813404,,-0.5740972753387197,
Mériadeck,Le Bistro du Musée,Bistro,4de8bd72b0fbcb7c9ac9c401,44.83703361,,-0.57853044,
Mériadeck,Glouton - Le Bistrot,Bistro,544c009a498e4d8c2ec00a7f,44.836890000000004,,-0.579608,
Mériadeck,Pontac Head,Bistro,56583dbb498eb87e0db6d770,44.83660888671875,,-0.5786983370780945,
Mériadeck,Chez Lolotte,Bistro,5b570cf1a42362002cd13c90,44.842096999999995,,-0.575236,
Mériadeck,St James,Bistro,5c8bab51838e59002cc7788f,44.836155,,-0.5712106,
Mériadeck,le Bistrot de Tutelle,Bistro,57ea767438fa34b7da78b477,44.841526,,-0.573712,
Mériadeck,Bistrot Des Globe-Trotteurs,French ,5aff1a0e60255e002caf40f1,44.834795,,-0.577408,
Mériadeck,Le Tourny,Bistro,57337f7a498e25ceaf9146a6,44.845307,,-0.578222,
Mériadeck,Le Centrale Pub Gambetta,Bistro,567d29ca498e3bcdbd64299c,44.841941,,-0.579964,
Mériadeck,Grignot’in,Bistro,5bdd9883c62b49002c657dbc,44.839411,,-0.5775399999999999,
Mériadeck,Le Bistrot d'Albret,Bistro,502e3513e4b07730f3e05a1a,44.8329732040795,,-0.5798945359751285,
Mériadeck,Marcel Bistrot Français,Bistro,54957337498e3b3acba39776,44.84053242834116,,-0.5796132248360664,
Mériadeck,Bistro Régent,Bistro,4c88c205ed0aa14337a5abf3,44.84201683976204,,-0.5797363495171705,
Mériadeck,Pains & Compagnie,Breakfast Spot,4c95c02f6b35a143b13c28dc,44.838762,,-0.575711,
Mériadeck,Plume Small Kitchen,Breakfast Spot,4de8c71dd4c0faa564369bf9,44.83835123685729,,-0.5756769134309898,
Mériadeck,Contrast,Breakfast Spot,5b150ddfc9a517002c3916eb,44.839176,,-0.5779758,
Mériadeck,Any'teas,Breakfast Spot,4e4647bcfa76a07fde574d0b,44.84244984597516,,-0.5762341532787847,
Mériadeck,Peter,Breakfast Spot,5cea756ea22db7002c45cc4e,44.835526,,-0.5717711999999999,
Mériadeck,Le Pain De Soleil,Café,4c5927a9f346c928c3e94bca,44.83715793674491,,-0.5718263544318808,
Mériadeck,VUE DES REMPARTS,Breakfast Spot,586904e058c4d132e38d8b20,44.83876,,-0.578929,
Mériadeck,La Collation,Breakfast Spot,5bf7ff939de23b002cb0435f,44.83543,,-0.5719194000000001,
Mériadeck,Cofete.b,Breakfast Spot,5ba37724e4c459002c73f905,44.83916,,-0.56900346,
Mériadeck,La Miche Gourmande,Breakfast Spot,52fe013611d256f8b04663ff,44.836032,,-0.5714819999999999,
Mériadeck,la nouvelle adresse,Breakfast Spot,5343bb94498e6617e5c99916,44.840617,,-0.576202,
Mériadeck,Maria's flat,Bubble Tea ,5409fb19498eadd8be5605dd,44.83045959472656,,-0.5744621157646179,
Mériadeck,Upper Burger,Burger ,50d5a92de4b06bd2dfc360f5,44.8415756347761,,-0.5815079263743341,
Mériadeck,Big Fernand,Burger ,54999a18498e3a66066cd3b1,44.839628000000005,,-0.575116,
Mériadeck,Edmond Pure Burger,Burger ,588366c6092392628e16fb5c,44.842777000000005,,-0.581391,
Mériadeck,Mangez Moi,Burger ,4f2343c8e4b03bdcfb9ea64c,44.83792305628923,,-0.5730239512100893,
Mériadeck,Edmond Pure Burger,Burger ,525c5d39498e8e27708b810d,44.835041010942184,,-0.5745247690709796,
Mériadeck,Resto Rapide,Burger ,500673f1e4b0d47ff9076c56,44.834254,,-0.588246,
Mériadeck,Ed Wood Café,Burger ,4be313e1b02ec9b6bb814ec0,44.840946227602856,,-0.5819465792233424,
Mériadeck,Le Charly's,Burger ,4fd5d065e4b09c16582f8236,44.83279184671691,,-0.5938542090053408,
Mériadeck,Pause 230,Burger ,539ed6b6498ea108fc1d199a,44.83274841308594,,-0.5939549207687378,
Mériadeck,réseau paul bert,Cafeteria,4df0dd43fa76042fed7028c5,44.837381,,-0.575547,
Mériadeck,CDiscount Coffee Zone,Cafeteria,4bd1afee41b9ef3b6e55fce5,44.845808,,-0.5787786625,
Mériadeck,Folk Kitchen,American ,5aeaf3b512f0a9002c6d6a4c,44.83533,,-0.5835783,
Mériadeck,L'Alchimiste,Café,578659d0cd10071f4bc94be6,44.841431811656754,,-0.5794875155135151,
Mériadeck,Nespresso,Coffee ,4b5d8369f964a5209e5f29e3,44.841613,,-0.579158,
Mériadeck,Baillardran Café,Café,4de24e7552b1d38d296a339c,44.84305046181893,,-0.5775761604309082,
Mériadeck,Krazy Kat,Bookstore,4d0cf822903d37049300c155,44.83888436670701,,-0.5737663446619788,
Mériadeck,Baillardran Caneles Cafe,Café,576be4f8498e41306ddde05c,44.84350788,,-0.57416767,
Mériadeck,Colombus Café,Café,4e3147091f6ea4a3c523af02,44.839925736534795,,-0.573791996283028,
Mériadeck,Les Taquineries De Marie,Café,5c2c66a7419a9e002b25104d,44.836793,,-0.581066,
Mériadeck,La Grange Aux Cafés Torréfaction,Café,4f96cd74e4b08c0fe364413c,44.842501109201066,,-0.5822747310589562,
Mériadeck,Café Ériu,Café,5d1ca287d5d77a0023fb96cd,44.848253,,-0.5822390000000001,
Mériadeck,Cave A Vin,Café,5b5ec66fc4404e001c82dfda,44.84202,,-0.5742147,
Mériadeck,Harriet's,Café,51c31571498e0a53a95ce4ab,44.843315699397344,,-0.5778241127906157,
Mériadeck,Comptoir du palais,Café,50e1b2ece4b07dd5ea71f307,44.83842849731445,,-0.5694795250892639,
Mériadeck,Personne n'est parfait,Café,5a2a9fc71987ec6f1aa16133,44.836845000000004,,-0.57412,
Mériadeck,Cheverus Café,Café,4d4db0bbb887a1cd45d6bea0,44.83786192738314,,-0.5755804375027321,
Mériadeck,Café Puy-Paulin,Café,4b82761cf964a520dfd330e3,44.84133188703772,,-0.5754237610447716,
Mériadeck,Café de la Comedie,Café,4fcdb4a5e4b082b05d02a7ce,44.842290999999996,,-0.574092,
Mériadeck,Banana Café,Café,5894cb409526bc23b68c4e8a,44.836037,,-0.575665,
Mériadeck,Le Bouffard Café,Café,4e1dba9b2271ff848fe94d16,44.83840954125132,,-0.5793491908762416,
Mériadeck,La Maison Du Cafe,Café,4df72cf9b0fba21ee54e1159,44.841223698736286,,-0.5743769701351767,
Mériadeck,Café Kokomo,Café,55dc7ca2498e4739702818a4,44.83700931006639,,-0.5726803408291572,
Mériadeck,Café Régent,Café,4e8c96fde5fa774802f5a045,44.84214569546054,,-0.5744367993885464,
Mériadeck,Le Monologue,Café,5b782225029a55003930b961,44.842843,,-0.5815060000000001,
Mériadeck,Coffee shop,Café,501003b6e4b00e159115e396,44.837373476416175,,-0.5737436601982178,
Mériadeck,Fika Lisa,Scandinavian ,590dd1ff12f0a95ea9d3a581,44.838611,,-0.576974,
Mériadeck,Sas Le Regent,Café,4e3815f46284fcf739a1f0bb,44.842147552896726,,-0.5741590089814835,
Mériadeck,Le Pain De Soleil,Café,4c5927a9f346c928c3e94bca,44.83715793674491,,-0.5718263544318808,
Mériadeck,Cafe Brasserie,Café,4c332cb7ed37a5933cdf6c03,44.84131005408821,,-0.5744004249572754,
Mériadeck,café de l'étoile,Café,52a9cb44498e166493f5de44,44.836077,,-0.5692550000000001,
Mériadeck,ballardran,Café,5741b0f4498e03ad1d063bcf,44.840775,,-0.5797359999999999,
Mériadeck,MAC Café,Café,4da9a9da6a2303012ef9c4bd,44.83971326800751,,-0.5736835887021994,
Mériadeck,Le BAL,Café,4bffb14637850f474cff963f,44.84342646987532,,-0.5776531228210523,
Mériadeck,My Little Épicerie,Deli / Bodega,5b83cd33588e36002c9e0280,44.842958,,-0.577974,
Mériadeck,Brulerie Café Soubira,Café,4fcdedb0e4b023dee7ea7c5e,44.844303490279074,,-0.5785450515305782,
Mériadeck,FoodSTORE,Café,4c6fcba11f58199c6627367c,44.8417927489884,,-0.5794535566022404,
Mériadeck,Workshop Skate & Coffee,Café,571e3423498e61b00326a38b,44.83658630524781,,-0.5758092505172691,
Mériadeck,Manger Bio,Café,574934fb498e865fe7dfd820,44.843790999999996,,-0.5744279999999999,
Mériadeck,Espresso Bar,Café,5556ff61498e63ff886c4bb2,44.838446000000005,,-0.577537,
Mériadeck,Café Crème,Café,4bbae2407421a593b644c440,44.84048247377375,,-0.5796865645074772,
Mériadeck,Charli & Julie,Café,4d20877ebdd7a0935228eece,44.838352,,-0.5789,
Mériadeck,Salon De The Glacier,Café,549eb3a1498e3a6606c976da,44.84316635131836,,-0.5774700045585632,
Mériadeck,Café Rodesse,French ,4bc30988b492d13aaa27a860,44.83395416474089,,-0.5849307775497437,
Mériadeck,Chez Fred,Café,4c5e99316147be9a193f9509,44.838430743336886,,-0.5693494856746697,
Mériadeck,Café Utopia,Pub,4b6f211df964a52005df2ce3,44.838918037038525,,-0.5723625998843231,
Mériadeck,Café Napoléon 3,Café,4c319356ed37a59313966a03,44.84327465224175,,-0.5746908846069071,
Mériadeck,Le Rohan,Café,4bf9174f508c0f47660d3f31,44.83809310926589,,-0.5787839716916211,
Mériadeck,Cajou Caffé,Café,4b814ecff964a520ac9e30e3,44.838870485385264,,-0.5722249201369615,
Mériadeck,Le Michel's,French ,4b929432f964a520420634e3,44.83975888398997,,-0.5720337053657083,
Mériadeck,Maloya Chaud,Cajun / Creole ,4e6e54812271a8cac02e0c6b,44.837277,,-0.583905,
Mériadeck,Ô maloya chô,Cajun / Creole ,52626181498ea08a500a8240,44.83561799446943,,-0.5838508218351582,
Mériadeck,Délice des Antilles,Cajun / Creole ,4e86f9212c5bd5e895dd63df,44.83584108112134,,-0.5731521909464543,
Mériadeck,Clémentine's,Cajun / Creole ,4eb3125de3005cfba03d03a1,44.833936,,-0.57448,
Mériadeck,French Karib,Caribbean ,5b60b4114acb19002c0f5908,44.836581,,-0.56982,
Mériadeck,Gusco,Coffee ,5a7ecf4866fc654af721a82f,44.835352,,-0.5838399999999999,
Mériadeck,Nespresso,Coffee ,4b5d8369f964a5209e5f29e3,44.841613,,-0.579158,
Mériadeck,Total,Gas Station,4c24ea66905a0f4705926060,44.83685562,,-0.59874573,
Mériadeck,Starbucks,Coffee ,5af6ec28c62b49002c914360,44.834814,,-0.573389,
Mériadeck,Bistro des Grands Hommes,Coffee ,4b4cb3aef964a520d9ba26e3,44.84299730883657,,-0.5779030061683926,
Mériadeck,Anticafé,Coffee ,59a57aa8dab4b119bfc984b0,44.836534,,-0.5760609999999999,
Mériadeck,Plume Small Kitchen,Breakfast Spot,4de8c71dd4c0faa564369bf9,44.83835123685729,,-0.5756769134309898,
Mériadeck,Starbucks,Coffee ,55f06e5c498efe65518dfed4,44.84003165712586,,-0.5834650397872393,
Mériadeck,Gourmands Breton,Creperie,5cc30ae8f5e9d7002c81023c,44.835601000000004,,-0.573443,
Mériadeck,KURO Espresso Bar,Coffee ,5867d6d59b7eac1aa2bb5410,44.842661,,-0.5749340000000001,
Mériadeck,Banana Café,Café,5894cb409526bc23b68c4e8a,44.836037,,-0.575665,
Mériadeck,Cafeincup,Coffee ,59b3e8d1f00a705ba43aa59b,44.839245,,-0.5699784999999999,
Mériadeck,Viennoiseries Sandwich Boissons,Coffee ,4ed9d03c29c2b91227bb5f31,44.837597751600654,,-0.5766687894093792,
Mériadeck,French Coffee Shop,Coffee ,4bc46ee7b492d13a38fba960,44.83742101476469,,-0.5765975159665402,
Mériadeck,Ours,Coffee ,5de24d8fffe32c0007cd6024,44.837343,,-0.570477,
Mériadeck,Le comptoir des chats,Coffee ,58cd40592ec364667470a870,44.835885,,-0.571892,
Mériadeck,French Coffee Shop,Coffee ,4bbc77fc3de8c9b668f69aad,44.84056733978954,,-0.5733622396870819,
Mériadeck,Le Pain De Soleil,Café,4c5927a9f346c928c3e94bca,44.83715793674491,,-0.5718263544318808,
Mériadeck,maison merling,Coffee ,5c5587342db4a9002cb70a69,44.843723,,-0.577665,
Mériadeck,French Coffee Shop,Coffee ,4bc47d30b492d13a8c0faa60,44.843216999999996,,-0.581546,
Mériadeck,Le P'tit Bar,,4e539ce2d22d7b9b656eb1bc,44.843227190741175,,-0.5863976572114521,
Mériadeck,Les Petits Mots Bleus,Coffee ,5b852227872f7d002cf60e33,44.838245,,-0.57788193,
Mériadeck,O Douze,Coffee ,51698dfbe4b0e47bf7a7070b,44.83826805496176,,-0.5766780318636867,
Mériadeck,Nespresso,Coffee ,5c98fb92c824ae003977d840,44.841737,,-0.579179,
Mériadeck,O sorbet d'Amour,Coffee ,570b81e4498e89089067e344,44.840092999999996,,-0.57507,
Mériadeck,Le Bac A Sable - Working Café,Coffee ,56408ff1cd106f40d62a8658,44.837371000000005,,-0.570569,
Mériadeck,Starbucks,Coffee ,562f7c50498e1baafd980668,44.839750512811634,,-0.575210452079773,
Mériadeck,Horace,Coffee ,59a2c3623149b949aead1f40,44.839695,,-0.578821,
Mériadeck,VerdeNero,Coffee ,5086806ce4b092480d52f225,44.83692842887146,,-0.5733081490113845,
Mériadeck,Black List,Coffee ,53b7f96c498e3d4b93837f28,44.837461867357376,,-0.5767678167378272,
Mériadeck,Café Piha,Coffee ,58cd01c89ab6631b5f4d2e7e,44.836736676405955,,-0.5749508720474683,
Mériadeck,L'épicerie Bordelaise,Coffee ,528f4fd611d2c0ecd2da52f2,44.838423171476485,,-0.5727132155313648,
Mériadeck,Donuts Coffee,Coffee ,4c21e3db99282d7f712f66b0,44.838680814378755,,-0.5769606327759247,
Mériadeck,Bar Des Vedettes,Coffee ,52628c4f11d2c678d7ae3069,44.838460999999995,,-0.569434,
Mériadeck,Milk Bar,Coffee ,4e5fce772271b1f51c25dc19,44.82816159946358,,-0.5881356998389202,
Mériadeck,Le 46,French ,4bd2055a462cb713136cdb07,44.839057000000004,,-0.572283,
Mériadeck,Nature Cook,Coffee ,5031d915e4b003c0edba586a,44.8367210670731,,-0.5798806711768999,
Mériadeck,Cafe D'Artemis,Coffee ,4bd945fb0115c9b68bdd7680,44.836174,,-0.571062,
Mériadeck,Chez JeF,Coffee ,540979e0498e6218a124f6b5,44.83764305048358,,-0.5776022881065401,
Mériadeck,Bar Montaigne,Coffee ,5172b13ce4b09adb65c7d7be,44.843468,,-0.577387,
Mériadeck,Books & Coffee,Coffee ,51cacace498ed85c1b2c527c,44.835976471439935,,-0.5714078468100858,
Mériadeck,Apollo,Bar,4b85a96bf964a5207f6b31e3,44.83719265623079,,-0.5717752232219306,
Mériadeck,SiP,Coffee ,5718d4a0cd100ea4121a4c78,44.838543695900704,,-0.5786148153400067,
Mériadeck,Nouveau Luludo's,Comfort Food ,55b7b6f6498e2d300f229ad3,44.836514,,-0.568508,
Mériadeck,Côté Crêperie,Creperie,519d21b2498e18b7072c905e,44.84197949746476,,-0.5791689513380622,
Mériadeck,Gourmands Breton,Creperie,5cc30ae8f5e9d7002c81023c,44.835601000000004,,-0.573443,
Mériadeck,La Parenthese,Creperie,5688ff89498eede81db24fa0,44.835148,,-0.573412,
Mériadeck,Chez Sergio,Creperie,5e650dbf0b66dc000829197e,44.841228,,-0.57343,
Mériadeck,La Crêperie du Galet,Creperie,4ed0ea887ee5be844bbe996c,44.83784207706121,,-0.5732399866092085,
Mériadeck,Crêperie Ptit Pilou,Creperie,505c53ece4b0c67782c3a33c,44.83569,,-0.572282,
Mériadeck,La Toque Cuivrée,Deli / Bodega,573f1793498e79e5a48e62d9,44.8417,,-0.580743,
Mériadeck,Big Fernand,Burger ,5bb4d0bea35f460032f2707c,44.8396,,-0.575108,
Mériadeck,Labo & Gato,Deli / Bodega,4ed64bcb2c5b3d826e85cdff,44.83486984943615,,-0.5739793261715846,
Mériadeck,Beillevaire Fromagerie,Deli / Bodega,4ee1eb5a722e9d45c5712c75,44.84349705150011,,-0.5770477317916253,
Mériadeck,My Little Épicerie,Deli / Bodega,5b83cd33588e36002c9e0280,44.842958,,-0.577974,
Mériadeck,El Patata Negra,Deli / Bodega,51cdf8a6498ebdda4004f29b,44.8391564972789,,-0.5698854055118562,
Mériadeck,FoodSTORE,Café,4c6fcba11f58199c6627367c,44.8417927489884,,-0.5794535566022404,
Mériadeck,Mille Et Une Saveurs,Deli / Bodega,4ed64a3d6c25b696b4a5e1b8,44.83486679414655,,-0.5763675804395116,
Mériadeck,Daily Shop,Deli / Bodega,4f840f8be4b00dd9521f8c4d,44.836932,,-0.571688,
Mériadeck,Yogurt Factory,Frozen Yogurt ,5b1e7c458c812a002cc08a0e,44.838592,,-0.585086,
Mériadeck,Baillardran,Dessert ,4edfb3d60e01ed773b930417,44.83872347477157,,-0.5844533443450928,
Mériadeck,Canelés Baillardran,Pastry ,5cd93126d41bb7002b292f7c,44.840687,,-0.5750158000000001,
Mériadeck,Chocolaterie De Neuville,Dessert ,4d84b6e45e70224b691b1209,44.837728999999996,,-0.588863,
Mériadeck,La Toque Cuivrée,Pastry ,5cc0e0ee8c812a002c1b847c,44.84103870000001,,-0.580158,
Mériadeck,La Toque Cuivrée,Pastry ,5cc0720faa6c950039530432,44.8389,,-0.573954,
Mériadeck,Baillardran Café,Café,4de24e7552b1d38d296a339c,44.84305046181893,,-0.5775761604309082,
Mériadeck,La Toque Cuivrée (Sainte-Catherine),Pastry ,5aa144dbb6eedb441f0df093,44.8417,,-0.5746834,
Mériadeck,La Toque Cuivrée,Deli / Bodega,573f1793498e79e5a48e62d9,44.8417,,-0.580743,
Mériadeck,Baillardran,Dessert ,4c5d2338857ca593441dcccb,44.84171427299648,,-0.5785635374177501,
Mériadeck,Baillardran,Dessert ,4e4bc37a1f6e2a789a8b571b,44.83876912129541,,-0.5761599540710449,
Mériadeck,La Rose de Tunis,Pastry ,534ebbe3498e21d2765824c4,44.83620590778067,,-0.5714702481954844,
Mériadeck,Canelés Baillardran,Pastry ,5cd931238a6f17002c1c2fef,44.84148771,,-0.5813045,
Mériadeck,Amorino,Ice Cream ,595aae242aff31601836fedf,44.841074,,-0.573709,
Mériadeck,La Fabrique Givrée,Ice Cream ,57c19f45498e5ecea5bd3e17,44.839626,,-0.57202,
Mériadeck,L'atelier Du Chocolat Bayonne,Dessert ,527a7db711d2a980f6cc12b8,44.84106682894701,,-0.5743767268487086,
Mériadeck,Cassonade,Pastry ,5e176226c546ca00073295ac,44.83556,,-0.5715026,
Mériadeck,Pariès,Pastry ,5c694d3565cdf8002c2afb83,44.840675,,-0.5794135,
Mériadeck,M Le Macaron,Cupcake ,4df3904aa809141629a2dc61,44.839409,,-0.579417,
Mériadeck,L'atelier de David Capy,Cupcake ,50800962fe7066ce8906780d,44.8443833679604,,-0.5797648429870605,
Mériadeck,San Nicolas,Dessert ,5079848ae4b0602b628d4635,44.83628845214844,,-0.5747814774513245,
Mériadeck,Miremont,Dessert ,562b8f8b498e6e2c4d41f3b4,44.843157,,-0.57795,
Mériadeck,Les Taquineries De Marie,Café,5c2c66a7419a9e002b25104d,44.836793,,-0.581066,
Mériadeck,Tata Yoyo,Frozen Yogurt ,5b2e61e8c9a5170039e67b0a,44.835545,,-0.5714232,
Mériadeck,La Banquise,Ice Cream ,5b2e77146bd36b002c9c2789,44.839904,,-0.579469,
Mériadeck,Villa Rad'O,Ice Cream ,4c33359566e40f478f96c78b,44.84087587773684,,-0.5760264440802784,
Mériadeck,Pâtisserie David,Dessert ,50587dbf45b06836ae6d62db,44.84300443430857,,-0.5771725062904768,
Mériadeck,Be My Cookie,Dessert ,5da6fb5da0917b00082c9129,44.838894,,-0.5791446,
Mériadeck,Gelati Di Peppone,Ice Cream ,4ffea9ede4b002ba99f82ddc,44.84338053955824,,-0.5794601079197478,
Mériadeck,Baillardran,Dessert ,502d1991e4b05f26ae6e3247,44.832768630602324,,-0.5984915640309741,
Mériadeck,David,Dessert ,529a2144498ec023e285d144,44.843262,,-0.577282,
Mériadeck,Ô Sorbet d'Amour,Ice Cream ,588e10e745005e3255a650e2,44.840666999999996,,-0.580048,
Mériadeck,Pâtisserie boulangerie Guillaume,Bakery,52bad8f6498ee6a3ef7c3bc0,44.838972601948754,,-0.5691923454154242,
Mériadeck,Ernest Le Glacier,Ice Cream ,5d235d997dc7420023dfcc4e,44.841995000000004,,-0.57475984,
Mériadeck,Amorino,Dessert ,4bf80b708d30d13a50f9ff17,44.84092663678773,,-0.5772042667053242,
Mériadeck,La Maison du Glacier,Ice Cream ,57405d96498e39a5c5e8cda8,44.83976737752131,,-0.5705533123309857,
Mériadeck,Maison Hermelin,Bakery,5d833e656d039000085b6631,44.83143,,-0.5779569999999999,
Mériadeck,Ben & Jerry's Bretzel Burgard Kleber,Ice Cream ,515ef5513d7cfa9e3b31b385,44.837789,,-0.57918,
Mériadeck,Gelateria Giovanni,Ice Cream ,5273df34498e7322117b37ef,44.83540344238281,,-0.5734578967094421,
Mériadeck,Frozen Palace,Ice Cream ,4e074b252271dfa46bae1b51,44.838828334925296,,-0.5687996167076544,
Mériadeck,Madison Patisserie,Dessert ,50d06c54e4b028fc4452fdac,44.84466344213585,,-0.5778333555125476,
Mériadeck,Gelato Familia,Ice Cream ,4e26e546b0fb1fae1dd7efc9,44.83922648918888,,-0.5719045892555767,
Mériadeck,Brioche Dorée,Sandwich ,4cb2c377aef16dcb91a9c354,44.842046250669966,,-0.5744598070593255,
Mériadeck,Georges Larnicol,Dessert ,4bc4b60bf8219c7414c4b710,44.842225633775385,,-0.5746791209949857,
Mériadeck,La Mie Caline,Bakery,4c2eed047cc0c9b66cf0ea9a,44.84065437188323,,-0.5796291137821195,
Mériadeck,La Bouch'en Rie Restaurant A Viandes,,4df75490d22df20cc2d6fe52,44.83432932167722,,-0.5892497509880168,
Mériadeck,Banana Café,Café,5894cb409526bc23b68c4e8a,44.836037,,-0.575665,
Mériadeck,French Coffee Shop,Coffee ,4bbc77fc3de8c9b668f69aad,44.84056733978954,,-0.5733622396870819,
Mériadeck,Le Dijeaux,,5163f568e4b048e8365a959f,44.84058571905265,,-0.5809482747346674,
Mériadeck,Le M De Monbadon,,4c9cf0c354c8a1cd5df87e4b,44.84489240970778,,-0.5802781306362867,
Mériadeck,maison mere,,55312017498e39898503b4a1,44.841809999999995,,-0.574175,
Mériadeck,Authentic Coffee Shop,,56a64af7498e64268e5fcc49,44.837753,,-0.575469,
Mériadeck,Comptoircuisine,,4ed76b2e9a52145470d25379,44.84218340438017,,-0.5775052401950409,
Mériadeck,L'orléans,,52a0e56211d299c21d233b9d,44.844088,,-0.5736100000000001,
Mériadeck,Toque Et Broc,French ,4d9b089617a4236a50e2d659,44.83768744632369,,-0.5690306331261374,
Mériadeck,Le Pain D'emeline,,4f7c34a2e4b04e01b86a9f2d,44.833663998190396,,-0.5744090735896878,
Mériadeck,Bazar Cafe,,4ff56f84e4b0fb4a8287935a,44.843270422107295,,-0.5778378249975331,
Mériadeck,Mademoiselle Simone,,5d0393e0bf5e0e0023d3a231,44.836628000000005,,-0.5750643,
Mériadeck,Le Café Conil,,4d77670b396f37044b22a738,44.838608730435546,,-0.5770800806983043,
Mériadeck,Le P'tit Bar,,4e539ce2d22d7b9b656eb1bc,44.843227190741175,,-0.5863976572114521,
Mériadeck,Le Bordeaux,,55d07727498e0153cd498ce5,44.842508,,-0.574601,
Mériadeck,The Breakfast Club,,50151f7ee4b0bc7cf5c74732,44.83695260020566,,-0.5729898681458836,
Mériadeck,Ed Wood Café,Burger ,4be313e1b02ec9b6bb814ec0,44.840946227602856,,-0.5819465792233424,
Mériadeck,Le Jackson,,4f423088e4b020398e767ac0,44.84519003047836,,-0.5915426677503058,
Mériadeck,O'Garnements,,5091853ce4b061e9d7257a0b,44.837357,,-0.570767,
Mériadeck,Le monde a l'envers,,5052403de4b0c9dff116d01f,44.84045605528844,,-0.5747695104779301,
Mériadeck,Le Monté Cristo,French ,5269055911d214b3356f2ebe,44.8394775390625,,-0.5692009925842285,
Mériadeck,Le Café Danois,,5065a525e4b0105355c2b336,44.83545358823572,,-0.5784248941693708,
Mériadeck,Klees,,4ebd7db729c2a4fb0a5c7e8b,44.834876913874496,,-0.5763714073640933,
Mériadeck,Pêché Mignon,,50f53c42e4b042a2fd03eb41,44.838421999999994,,-0.5775020000000001,
Mériadeck,Le 188,,4e6736db227151797012494f,44.84757100088614,,-0.5874330777970046,
Mériadeck,L'Avant Gout,,4e92c6e42c5b7223b99e6579,44.83485014051565,,-0.5802827522811891,
Mériadeck,5th Avenue,Bar,4c34e11a7cc0c9b66f18f49a,44.842335705958654,,-0.5787204578645938,
Mériadeck,Le Catering 2,Donut ,5311bdf5498e16e6b86fc78d,44.840297570348156,,-0.5796042543595584,
Mériadeck,Le Gingko,Donut ,4faa4a67e4b0bab49b58e3ec,44.83465816379865,,-0.5757630392734353,
Mériadeck,English Country Kitchen,English ,54b7bd6d498ee86919a6c79a,44.84135289707663,,-0.5818356552693009,
Mériadeck,Massa,Falafel ,5c1e8a69b6b04b002ceb6da8,44.836905,,-0.5738439999999999,
Mériadeck,Massa Falafel & Hummus,Falafel ,5b20f445d0a149002c2c28af,44.83697,,-0.5738378000000001,
Mériadeck,Cilicie,Falafel ,57b74ec7498ed6553ac45ad9,44.838965,,-0.570603,
Mériadeck,Quick,Fast Food ,4bbcda07a8cf76b0e30bb1fd,44.83782864251288,,-0.5848123159591204,
Mériadeck,subway,Sandwich ,535795c2498e6e249f4e65bb,44.837091359490366,,-0.5758394707253274,
Mériadeck,Burger King,Fast Food ,540374d0498e97602cf98035,44.83506746910823,,-0.5732543644180623,
Mériadeck,McDonald's,Fast Food ,56054a08498eeba80a9f6dbd,44.839799962329415,,-0.5752158164978027,
Mériadeck,L’otophage,Fast Food ,5c863fd4f19f4400250cce9b,44.834675,,-0.588611,
Mériadeck,Nooi,Fast Food ,4cc6aa07b2beb1f74f7b294c,44.836850162553056,,-0.5736466216726915,
Mériadeck,Döner Et Patatoes,Doner ,4dd64853d22d38ef42cac834,44.83314529371606,,-0.5730828787176246,
Mériadeck,Wood Kitchen,Fast Food ,57078fd2498ee10e7e705590,44.846296,,-0.579476,
Mériadeck,SUBWAY,Sandwich ,512a0766e4b01971f9969b1a,44.83708953857422,,-0.575957179069519,
Mériadeck,King Tacos,Taco ,5b513487a5a315002c6f14a7,44.835498,,-0.56926,
Mériadeck,Subway,Sandwich ,4bc7605caf07a59316107f2d,44.83367113936594,,-0.5731880631979067,
Mériadeck,Le Mc Duck,Fast Food ,5558e666498ed73c64422ab0,44.83845775637445,,-0.5707309551412881,
Mériadeck,McDonald's,Fast Food ,4b79648ef964a5203ef72ee3,44.84108691371666,,-0.5744495231617851,
Mériadeck,Le Burger Fermier,Fast Food ,58f9f794b3d8e242db3535ee,44.841206,,-0.581897,
Mériadeck,KFC,Fast Food ,4b90d18ff964a5206d9833e3,44.83509826453057,,-0.5735152959823608,
Mériadeck,Quick,Fast Food ,4ba12c97f964a520e59e37e3,44.84199115694537,,-0.5792113784748532,
Mériadeck,Mon Q C Du Poulet,Fast Food ,4f32d247e4b02da69991b627,44.84100707438203,,-0.5735357207897221,
Mériadeck,sogood,Fast Food ,56a7903c498ebca5b5aec9eb,44.836755,,-0.573628,
Mériadeck,Mezzo di Pasta,Italian ,4c2f3c34213c2d7f8a72305d,44.8378658273269,,-0.5849370203199955,
Mériadeck,у сашка,Fast Food ,54207f3a498ebd85fae4df5b,44.83897,,-0.573808,
Mériadeck,Jack's Express,Fast Food ,4bc0b6cb461576b02f987a32,44.838683,,-0.5741310000000001,
Mériadeck,O'tacos,Fast Food ,526508fc11d2caed1601f8f2,44.84188218031907,,-0.5812163355247437,
Mériadeck,Le Ruyam,Fast Food ,4ee75a1c490141636c81d8f1,44.84043111298645,,-0.5735865503228091,
Mériadeck,Pronto Pizza,Fast Food ,51993e7e498eb437eed5143d,44.834958665676375,,-0.5805092135370339,
Mériadeck,Pizza T Fou,Fast Food ,51cf4108498ed8dfbca28372,44.833587646484375,,-0.5821132063865662,
Mériadeck,Mezzo Di Pasta,Italian ,4b585033f964a520385228e3,44.838898,,-0.57392,
Mériadeck,Subway,Sandwich ,4c31d04c09a99c749c670b2a,44.84066982797765,,-0.5800419323602998,
Mériadeck,La Dernière Séance,Sandwich ,51520c65e4b0f8fde898c24a,44.84124326355385,,-0.5819696884192354,
Mériadeck,Funky Burger,Fast Food ,4bc0b68aabf4952133b3bf93,44.83794881370029,,-0.5719972168714861,
Mériadeck,Le Zapard Et Hook’s,Fish & Chips ,5d5d8deffec3f800081a24e6,44.837976,,-0.5736399999999999,
Mériadeck,Yes Mum,Fish & Chips ,537742d6498ea7d99f37bc87,44.83710453301767,,-0.5717474866239809,
Mériadeck,Fish and Chips,Fish & Chips ,5656fbab498e9760a5c2b7cc,44.83713,,-0.571706,
Mériadeck,Bibimbap,Korean ,594c0c8fd1a40209d0d09172,44.838924,,-0.5718979999999999,
Mériadeck,Fournil St Nicolas,Food Court,4f67252ae4b08ac72762a54d,44.835179,,-0.5733159999999999,
Mériadeck,By Oliver,Food Truck,5152d4a4e4b0ba9d0d470eac,44.837171000000005,,-0.589588,
Mériadeck,Le Kiosque,Food Truck,5048cf74e4b0f1b4cd3c6803,44.83874,,-0.573974,
Mériadeck,Primeur de la Porte Dijeaux,Food Truck,4c516bc5375c0f47c847ed93,44.840264000000005,,-0.580634,
Mériadeck,Tacos,Food Truck,4d2df868b97cb1f7675f8b48,44.84034999773302,,-0.5833192886657944,
Mériadeck,El Taco Del Diablo,Food Truck,5475b6a1498e097630051eed,44.83662319402243,,-0.5684207526787329,
Mériadeck,La P'Tite Brasserie,French ,56b4a100498e78bd2db25d23,44.839534,,-0.5871970000000001,
Mériadeck,L'épicure,French ,51840094498e32895cfa3470,44.837759000000005,,-0.583936,
Mériadeck,Le Saint Projet Café Brasserie.,French ,4c2f0ccded37a593bc9d6603,44.838714,,-0.57420955,
Mériadeck,Le Bistro du sommelier,French ,4bffb61337850f470e07973f,44.83895827209877,,-0.5889492778263156,
Mériadeck,DAP,French ,56f14a61cd1046d3950423e2,44.841405,,-0.573542,
Mériadeck,Baud & Millet,French ,4c5d9f35d25320a15e7bc67a,44.844752363289224,,-0.5792451527351253,
Mériadeck,Le Chicoula Bistrot D'art,French ,5e48463150aa720008a3d7c2,44.834953000000006,,-0.5767909000000001,
Mériadeck,Brasserie De L'Europe,French ,4c39a55b0a71c9b6ecd442c9,44.84257,,-0.574415,
Mériadeck,Loulou,French ,594d074c59fe5c1c5d7e5eed,44.839457,,-0.570157,
Mériadeck,Bistrot Des Globe-Trotteurs,French ,5aff1a0e60255e002caf40f1,44.834795,,-0.577408,
Mériadeck,Le Chapon Fin,French ,4ceed09228abb60c638cbf09,44.842926571225036,,-0.5780683063243648,
Mériadeck,Le Tio Pépe,French ,4d849c9640a7a35d51260ebe,44.839469,,-0.57935,
Mériadeck,Le Bordeaux Gordon Ramsay,French ,579ba8b1498ed88f40973945,44.84260525628423,,-0.574598211308151,
Mériadeck,Big Bistrot Girondin,French ,5d546492c384cf0008aa7e82,44.841133,,-0.57381606,
Mériadeck,Brasserie tourny,French ,4bc5a97f6c26b7131586ebf3,44.84511847899396,,-0.577951762533737,
Mériadeck,L'Absinthe,French ,4c2e5069ed37a593135c6503,44.8305984250219,,-0.5867998039645493,
Mériadeck,Le Cinq,French ,4ccc5d9eba79a1cd91c43acb,44.84375,,-0.575501,
Mériadeck,Baillardran - Canelés,French ,4d4d6dd372eba143c33a4312,44.84097559499502,,-0.5759578379448779,
Mériadeck,Le BAL,Café,4bffb14637850f474cff963f,44.84342646987532,,-0.5776531228210523,
Mériadeck,Restaurant du Loup,French ,4e6fa02045dd49e0f1ddd31b,44.837925,,-0.574595,
Mériadeck,bistromatic,French ,4d0b4a4cd823b1f73d7ce85c,44.84686060744179,,-0.5796770027602653,
Mériadeck,Le Comptoir des Saveurs,French ,5c9699d942d8c2002c4f7d3e,44.841613,,-0.583834,
Mériadeck,Le Charabia,French ,5d30564c898bc7000815c6b3,44.835873,,-0.578467,
Mériadeck,La Petite Maison De Pierre,French ,55171546498ef850f2105c2f,44.83974592705874,,-0.5799037791766236,
Mériadeck,La Brasserie Des Châteux,French ,51edb0d6498e21f5b9c56f7b,44.84229850553339,,-0.5765856074169574,
Mériadeck,Café des Arts,Seafood ,4bb908c83db7b713a6eb219a,44.83491259813054,,-0.5732997020236735,
Mériadeck,Brasserie l'Orleans,Brasserie,4c7f85b301df3704f058e6ac,44.8438,,-0.573553,
Mériadeck,Le Pressoir d'Argent,French ,4c7e9cc401df3704cfcbe3ac,44.84214954931885,,-0.5750111899743179,
Mériadeck,Le Lion Lilas,,56b10e7b498e4f4c9f837c8e,44.83685629,,-0.57125464,
Mériadeck,Le Cheminée Royale,French ,4c9128ed7088a1439b9eae43,44.841078,,-0.5734229999999999,
Mériadeck,Le Poulailler d'Augustin,French ,5358fe39498e820e956fc730,44.843263,,-0.5863649999999999,
Mériadeck,Hippopotamus,French ,4d2ee959ad3a8cfa477498bd,44.8418604,,-0.57961624,
Mériadeck,L'osmose,French ,4c094fd3009a0f471b8ce7bf,44.838909,,-0.572312,
Mériadeck,Brasserie Michel,French ,4da077e158c2224bedfa5279,44.84002502333139,,-0.5760356863857835,
Mériadeck,Le Petit Creux,French ,4daebdb4fa8cf04fbe056987,44.838506464231536,,-0.5818772517159414,
Mériadeck,Le Jardin des Gastronomes,French ,4c96530803413704766d83ef,44.839696999999994,,-0.570525,
Mériadeck,Chez Moustache,French ,4f5645f50cd63cb7d7d6b1b6,44.835162934497106,,-0.5841636657714844,
Mériadeck,Brasserie les Ateliers,French ,4d934b13d176a1cd800236f0,44.84357819546103,,-0.5755966792388371,
Mériadeck,l'Aviapote,French ,51439121e4b0a40e343684ca,44.834113,,-0.58691,
Mériadeck,Type top,French ,4bcd90330687ef3be802e1cc,44.835691,,-0.578097,
Mériadeck,l'alcazar,French ,51c88860498e9604b90d1ae5,44.843878227343986,,-0.5748295836092573,
Mériadeck,On Caffé,French ,4ba29a11f964a5202f0838e3,44.83807746666667,,-0.5787800000000001,
Mériadeck,Comptoir Cuisine,French ,4d5bae44b9b2a143cf826c8c,44.84236028541496,,-0.5744538595884455,
Mériadeck,Le Michel's,French ,4b929432f964a520420634e3,44.83975888398997,,-0.5720337053657083,
Mériadeck,Couleur Café,French ,4bb5cf42f562ef3b63442f97,44.83857843990614,,-0.576431991408541,
Mériadeck,Le Café Français,French ,4bbf7011006dc9b64899fc3f,44.8380891352186,,-0.5781892488596007,
Mériadeck,Le Bistrot Régent,French ,4c9badc59c663704778663fd,44.84126093848009,,-0.5731634190160193,
Mériadeck,Villa Tourny,French ,4c3cbc0c7c1ee21ed4fb8c71,44.843588856011145,,-0.5757311432995312,
Mériadeck,L'Entrecôte,Steakhouse,4ba9fb5bf964a52064413ae3,44.843257519531356,,-0.574234127998352,
Mériadeck,KFC,Fast Food ,4b90d18ff964a5206d9833e3,44.83509826453057,,-0.5735152959823608,
Mériadeck,Chocolat De Bayonne,Gastropub,4e6b556e7d8b143eb77e08cb,44.840588000000004,,-0.5797829999999999,
Mériadeck,Fleur de Cèdre,Gastropub,511241ade4b079bb3e4b20c1,44.834082,,-0.5891930000000001,
Mériadeck,Au Nouveau Monde,Gastropub,56744000498ec531705b9910,44.835815000000004,,-0.569339,
Mériadeck,Café Gourmand,American ,4b4cb5bdf964a52044bb26e3,44.843204212590074,,-0.5780946060252985,
Mériadeck,Au Chaperon Rouge,Gastropub,4d36e0ca84462c0f0c1cb7ce,44.84432785,,-0.5812986333333333,
